Address,Translated,Status,Province,Administrative District,Building,Neighbourhood,Town,Street,Village,Country,Latitude,Longitude,api,Block,Lane,Street Number,Index
"զաքյան փողոցի 1-ին նրբանցք 4, երևան","4, 1st Alley, Zakyan Street, Yerevan",OK,Yerevan,Yerevan,1,,Yerevan,Zaqyan Street,,Armenia,40.17696,44.504956,Yandex,,1st Lane,,['A7079']
"զաքյան փողոցի 1-ին նրբանցք 1, երևան","1st Lane, Zakyan Street, Yerevan",OK,Yerevan,Yerevan,1,,Yerevan,Zaqyan Street,,Armenia,40.17696,44.504956,Yandex,,1st Lane,,"['A12290', 'A25443', 'B6465', 'B6872']"
"զաքյան փողոցի 1-ին նրբանցք, երևան","1st Alley Of Zakyan Street, Yerevan",OK,Yerevan,Yerevan,,,Yerevan,Zaqyan Street,,Armenia,40.177504,44.505351,Yandex,,1st Lane,,"['A937', 'A9497', 'A31700']"
"եղիշե թադևոսյան փողոցի նրբանցք, երևան","Alley Of Yeghishe Tadevosyan Street, Yerevan",OK,Yerevan,Yerevan,,,Yerevan,Yeghishe Tadevosyan Street Lane,,Armenia,40.143546,44.486657,Yandex,,,,['A1522']
"eghishe tadevosyan lane, yerevan","Eghishe Tadevosyan Lane, Yerevan",OK,Yerevan,Yerevan,,,Yerevan,Yeghishe Tadevosyan Street Lane,,Armenia,40.143546,44.486657,Yandex,,,,['A9995']
"eghishe tadevosyan lane 10, yerevan","Eghishe Tadevosyan Lane 10, Yerevan",OK,Yerevan,Yerevan,10,,Yerevan,Yeghishe Tadevosyan Street Lane,,Armenia,40.14276,44.485795,Yandex,,,,['A28092']
"եղիշե չարենցի փողոց 46, վարդենիս","46 Yeghishe Charents Street, Vardenis",OK,Yerevan,Yerevan,46,,,Yeghishe Charents Street,,Armenia,40.1708254,44.5274093,Azure,,,,['B325']
"եղիշե չարենցի փողոց 42, երևան","42 Yeghishe Charents Street, Yerevan",OK,Yerevan,Yerevan,42,,,Yeghishe Charents Street,,Armenia,40.178147,44.527245,Azure,,,,['A24063']
"եղիշե չարենցի փողոց 54, վարդենիս","54 Yeghishe Charents Street, Vardenis",OK,Gegharkunik,Yerevan,54,,Vardenis,Yeghishe Charents Street,,Armenia,40.19032,45.745448,Yandex,,,,['B359']
"վրացական փողոցի 4-րդ նրբանցք 7, երևան","7, 4th Lane, Vratsakan Street, Yerevan",OK,Yerevan,Yerevan,7,,Yerevan,Vratsakan Street,,Armenia,40.208298,44.508261,Yandex,,4th Lane,,"['A1407', 'A28858']"
"2-й переулок улицы врацакан 4/3, ереван","2nd Lane Of Vratsakan Street 4/3, Yerevan",OK,Yerevan,Yerevan,4/3,,Yerevan,Vratsakan Street,,Armenia,40.205467,44.511271,Yandex,,2nd Lane,,['A24396']
"վիլնյուսի փողոց 27/4, երևան","Vilnius Street 27/4, Yerevan",OK,Yerevan,Yerevan,27/4,,Yerevan,Vilnyus Street,,Armenia,40.1700097,44.56589062,Nominatim,,,,['A28659']
"վիլնյուսի փողոց, նոր նորքի 9-րդ զանգված","Vilnius Street, Nor Nork 9th District",OK,Yerevan,Yerevan,,9th Residential Area,Yerevan,Vilnyus Street,,Armenia,40.171633,44.565098,Yandex,,,,"['A2226', 'A3060', 'A21903', 'A30348']"
"վիլնյուսի փողոց 7, նոր նորքի 9-րդ զանգված","Vilnius Street 7, Nor Nork 9th District",OK,Yerevan,Yerevan,35/7,9th Residential Area,Yerevan,Vilnyus Street,,Armenia,40.171633,44.565098,Yandex,,,,['A23871']
"վիլնյուսի փողոց 25/2, նոր նորքի 9-րդ զանգված","Vilnius Street 25/2, Nor Nork 9th District",OK,Yerevan,Yerevan,25/2(20),9th Residential Area,Yerevan,Vilnyus Street,,Armenia,40.171633,44.565098,Yandex,,,,['A3553']
"վիլնյուսի փողոց, երևան","Vilnius Street, Yerevan",OK,Yerevan,Yerevan,,,Yerevan,Vilnius Street,,Armenia,40.173391,44.567748,Yandex,,,,"['A646', 'A871', 'A1840', 'A5257', 'A6627', 'A20683']"
"վիլնյուսի փողոց 4/7, երևան","Vilnius Street 4/7, Yerevan",OK,Yerevan,Yerevan,4/7,,Yerevan,Vilnius Street,,Armenia,40.172391,44.560337,Yandex,,,,['A19396']
"vilnius street, yerevan","Vilnius Street, Yerevan",OK,Yerevan,Yerevan,,,Yerevan,Vilnius Street,,Armenia,40.173391,44.567748,Yandex,,,,['A28240']
"вильнюсская улица, ереван","Vilnius Street, Yerevan",OK,Yerevan,Yerevan,,,Yerevan,Vilnius Street,,Armenia,40.173391,44.567748,Yandex,,,,['A29374']
"vilnius street 3, yerevan","Vilnius Street 3, Yerevan",OK,Yerevan,Yerevan,3,,Yerevan,Vilnius Street,,Armenia,40.173205,44.568736,Yandex,,,,['A26417']
"vilnius st, yerevan","Vilnius Street, Yerevan",OK,Yerevan,Yerevan,,,Yerevan,Vilnius Street,,Armenia,40.173391,44.567748,Yandex,,,,['A17']
"վիկտոր համբարձումյան փողոց 12/5, երևան","12/5 Victor Hambardzumyan Street, Yerevan",OK,Yerevan,Yerevan,12/5,,Yerevan,Viktor Hambardzumyan Street,,Armenia,40.198304,44.503455,Yandex,,,,['A15558']
"վիկտոր համբարձումյան փողոց 97, երևան","97 Victor Hambardzumyan Street, Yerevan",OK,Yerevan,Yerevan,97,,,Victor Hambardzumyan Street,,Armenia,40.198515,44.503755,Azure,,,,['A13644']
"վիկտոր համբարձումյան փողոց 8/1, երևան","8/1 Victor Hambardzumyan Street, Yerevan",OK,Yerevan,Yerevan,8/1,,,Victor Hambardzumyan Street,,Armenia,40.196701,44.499834,Azure,,,,['A24060']
"վերին շենգավիթի 2-րդ փողոց, երևան","2nd Upper Shengavit Street, Yerevan",OK,Yerevan,Yerevan,,,Yerevan,Verin Shengavit Street,,Armenia,40.154072,44.492945,Yandex,,,2nd,['A32321']
"վերին շենգավիթի 10-րդ փողոց, երևան","10th Upper Shengavit Street, Yerevan",OK,Yerevan,Yerevan,,,Yerevan,Verin Shengavit Street,,Armenia,40.148234,44.488975,Yandex,,,10th,['A22305']
"վառլամ ավանեսովի փողոց 6/1, երևան","Varlam Avanesov Street 6/1, Yerevan",OK,Yerevan,Yerevan,6/1,,,Varlam Avanesov Street,,Armenia,40.131831,44.527987,Azure,,,,['A752']
"վառլամ ավանեսովի փողոց 1/3, երևան","1/3 Varlam Avanesov Street, Yerevan",OK,Yerevan,Yerevan,1/3,,,Varlam Avanesov Street,,Armenia,40.130002,44.528473,Azure,,,,['A19879']
"վարդան աճեմյանի փողոց, երևան","Vardan Achemyan Street, Yerevan",OK,Yerevan,Yerevan,,,,Vardan Achemyan Street,,Armenia,40.151961,44.51361,Azure,,,,['A22751']
"վահրամ փափազյանի 2-րդ նրբանցք, երևան","Vahram Papazyan 2nd Alley, Yerevan",OK,Yerevan,Yerevan,,,,Vahram Papazyan,,Armenia,40.212009,44.503153,Azure,,2nd Alley,,['A24273']
"վահան տերյանի փողոց 69, երևան","69 Vahan Teryan Street, Yerevan",OK,Yerevan,Yerevan,69,,,Vahan Teryan Street,,Armenia,40.186422,44.518495,Azure,,,,['A15383']
"արաբկիր 51 փողոց, երևան","51 Arabkir Street, Yerevan",OK,Yerevan,Yerevan,51,,Yerevan,Vahagn Davtyan Street,,Armenia,40.203008,44.509528,Yandex,,,,"['A20694', 'A29481']"
"vahagn davtiyan street 1/4, yerevan","Vahagn Davtiyan Street 1/4, Yerevan",OK,Yerevan,Yerevan,1/4,,Yerevan,Vahagn Davtyan Street,,Armenia,40.196148,44.513436,Yandex,,,,"['A1929', 'B7285']"
"վաղարշ վաղարշյանի փակուղի, երևան","Vagharsh Vagharshyan Dead End, Yerevan",OK,Yerevan,Yerevan,,,Yerevan,Vagharshyan Street,,Armenia,40.200804,44.499997,Yandex,,,,['A23885']
"vagharsh vagharshyan street 14/1, yerevan","Vagharsh Vagharshyan Street 14/1, Yerevan",OK,Yerevan,Yerevan,14/1,,Yerevan,Vagharshyan Street,,Armenia,40.199985,44.500922,Yandex,,,,"['A475', 'A9847']"
"թումանյան փողոց 40/28, yerevan","Tumanyan Street 40/28, Yerevan",OK,Yerevan,Yerevan,40/28,,,Tumanyan Street,,Armenia,40.182319,44.517976,Azure,,,,['A3471']
"հովհաննես թումանյանի փողոց 9ա, երևան","9a Hovhannes Tumanyan Street, Yerevan",OK,Yerevan,Yerevan,9A,,Yerevan,Tumanyan Street,,Armenia,40.179702,44.519769,Yandex,,,,['A10033']
"հովհաննես թումանյանի փողոց 5ա, երևան","5a Hovhannes Tumanyan Street, Yerevan",OK,Yerevan,Yerevan,5A,,Yerevan,Tumanyan Street,,Armenia,40.179461,44.521332,Yandex,,,,"['B1988', 'B2465']"
"հովհաննես թումանյանի փողոց 40, երևան","40 Hovhannes Tumanyan Street, Yerevan",OK,Yerevan,Yerevan,40,,Yerevan,Tumanyan Street,,Armenia,40.186675,44.511873,Yandex,,,,"['A11581', 'B7188']"
"հովհաննես թումանյանի փողոց 20, երևան","20 Hovhannes Tumanyan Street, Yerevan",OK,Yerevan,Yerevan,20,,Yerevan,Tumanyan Street,,Armenia,40.181087,44.51967,Yandex,,,,['A17636']
"հովհաննես թումանյանի փողոց 11ա, երևան","11a Hovhannes Tumanyan Street, Yerevan",OK,Yerevan,Yerevan,11A,,Yerevan,Tumanyan Street,,Armenia,40.180295,44.51941,Yandex,,,,['B5025']
"հովհաննես թումանյանի փողոց 11/4, երևան","11/4 Hovhannes Tumanyan Street, Yerevan",OK,Yerevan,Yerevan,11/4,,Yerevan,Tumanyan Street,,Armenia,40.180047,44.520416,Yandex,,,,['A23179']
"ծովակալ իսակովի պողոտա, երևան","Admiral Isakov Avenue, Yerevan",OK,Yerevan,Yerevan,,,Yerevan,Tsovakal Isakov Avenue,,Armenia,40.157229,44.459896,Yandex,,,,"['A1797', 'A5901', 'A14576', 'A15016', 'A25544', 'A30025', 'A31540']"
"ծովակալ իսակովի պողոտա, երևան","Admiral Isakov Avenue, Yerevan",OK,Yerevan,Yerevan,,,Yerevan,Tsovakal Isakov Avenue,,Armenia,40.157229,44.459896,Yandex,,,,"['A1797', 'A5901', 'A14576', 'A15016', 'A25544', 'A30025', 'A31540']"
"ծովակալ իսակովի պողոտա 83/24, երևան","Admiral Isakov Avenue 83/24, Yerevan",OK,Yerevan,Yerevan,83/24,,Yerevan,Tsovakal Isakov Avenue,,Armenia,40.159593,44.437645,Yandex,,,,['A31294']
"ծովակալ իսակովի պողոտա 52/4, երևան","Admiral Isakov Avenue 52/4, Yerevan",OK,Yerevan,Yerevan,52/4,,Yerevan,Tsovakal Isakov Avenue,,Armenia,40.160669,44.435525,Yandex,,,,['A20029']
"ծովակալ իսակովի պողոտա 50/7, երևան","Admiral Isakov Avenue 50/7, Yerevan",OK,Yerevan,Yerevan,50/7,,Yerevan,Tsovakal Isakov Avenue,,Armenia,40.161544,44.433378,Yandex,,,,['A25422']
"ծովակալ իսակովի պողոտա 4, երևան","Admiral Isakov Avenue 4, Yerevan",OK,Yerevan,Yerevan,4,,Yerevan,Tsovakal Isakov Avenue,,Armenia,40.17295,44.492909,Yandex,,,,['A13772']
"ծովակալ իսակովի պողոտա 36, երևան","Admiral Isakov Avenue 36, Yerevan",OK,Yerevan,Yerevan,36,,Yerevan,Tsovakal Isakov Avenue,,Armenia,40.161192,44.447365,Yandex,,,,['A1167']
"ծովակալ իսակովի պողոտա 32, երևան","Admiral Isakov Avenue 32, Yerevan",OK,Yerevan,Yerevan,32,,Yerevan,Tsovakal Isakov Avenue,,Armenia,40.158615,44.448667,Yandex,,,,['A541']
"թոթովենցի փողոց, երևան","Totoventsi Street, Yerevan",OK,Yerevan,Yerevan,,2,Yerevan,Totovents Street,,Armenia,40.203132,44.568997,Yandex,Nor Nork Block,,,"['A229', 'A457', 'A589', 'A4570', 'A5246']"
"թոթովենցի նրբանցք, երևան","Totovents Alley, Yerevan",OK,Yerevan,Yerevan,,2,Yerevan,Totovents Street,,Armenia,40.203132,44.568997,Yandex,Nor Nork Block,,,['A2870']
"թոթովենց նրբանցք, երևան","Totovents Alley, Yerevan",OK,Yerevan,Yerevan,,,,Totovents Alley,,Armenia,40.201435,44.569978,Azure,,,,['A29824']
"թոթովենց նրբանցք 3/2, երևան","3/2 Totovents Alley, Yerevan",OK,Yerevan,Yerevan,3/2,,,Totovents Alley,,Armenia,40.202358,44.570795,Azure,,,,['B3805']
"տիգրան մեծ պողոտա, վանաձոր","Tigran Mets Avenue, Vanadzor",OK,Lori,Yerevan,,,Vanadzor,Tigran Mets Avenue,,Armenia,40.810948,44.486037,Yandex,,,,['B1062']
"проспект тигран мец 79, ванадзор","Tigran Mets Avenue 79, Vanadzor",OK,Lori,Yerevan,79,,Vanadzor,Tigran Mets Avenue,,Armenia,40.811432,44.485283,Yandex,,,,['B939']
"թևոսյան փողոց, երևան","Tevosyan Street, Yerevan",OK,Yerevan,Yerevan,,,Yerevan,Tevosyan Street,,Armenia,40.189259,44.586541,Yandex,,,,"['A3936', 'A25058']"
"վահան տերյանի փողոց, երևան","Vahan Teryan Street, Yerevan",OK,Yerevan,Yerevan,,,Yerevan,Teryan Street,,Armenia,40.186441,44.518772,Yandex,,,,['A20301']
"վահան տերյանի փողոց 62ա, երևան","62a Vahan Teryan Street, Yerevan",OK,Yerevan,Yerevan,62A,,Yerevan,Teryan Street,,Armenia,40.186462,44.519185,Yandex,,,,"['A9984', 'A29322']"
"վահան տերյանի փողոց 1, երևան","1 Vahan Teryan Street, Yerevan",OK,Yerevan,Yerevan,1,,Yerevan,Teryan Street,,Armenia,40.181149,44.512196,Yandex,,,,"['A9509', 'A14296']"
"տաշքենդի փողոց 4, երևան","Tashkent Street 4, Yerevan",OK,Yerevan,Yerevan,4/1,,Yerevan,Tashkent Street,,Armenia,40.226499,44.574045,Yandex,,,,['A3226']
"սվաճյան փողոց 12/1, երևան","12/1 Svachyan Street, Yerevan",OK,Yerevan,Yerevan,12/1,,Yerevan,Svachyan Street,,Armenia,40.176808,44.450212,Yandex,,,,['A4073']
"շահումյանի փողոց 14, արտաշատ","Shahumyan Street 14, Artashat",OK,Ararat,Yerevan,14,,Artashat,Stepan Shahumyan Street,,Armenia,39.960855,44.551515,Yandex,,,,['B42']
"սողոմոն տարոնցի փողոց, երևան","Soghomon Tarontsi Street, Yerevan",OK,Yerevan,Yerevan,,,,Soghomon Tarontsi Street,,Armenia,40.14694,44.486434,Azure,,,,"['A24708', 'A31559']"
"սողոմոն տարոնցի փողոց 13, երևան","Soghomon Tarontsi Street 13, Yerevan",OK,Yerevan,Yerevan,13,,,Soghomon Tarontsi Street,,Armenia,40.14694,44.486434,Azure,,,,['A29602']
"սողոմոն տարոնցի փողոց 3, երևան","3 Soghomon Tarontsi Street, Yerevan",OK,Yerevan,Yerevan,3,,,Soghomon Tarontsi Street,,Armenia,40.146412,44.48602,Azure,,,,['A320']
"սողոմոն տարոնցի փողոց 8/1, երևան","Soghomon Tarontsi Street 8/1, Yerevan",OK,Yerevan,Yerevan,8/1,,Yerevan,Soghomon Taronts Street,,Armenia,40.146283,44.484564,Yandex,,,,['A9087']
"սողոմոն տարոնցի փողոց 24, երևան","24 Soghomon Tarontsi Street, Yerevan",OK,Yerevan,Yerevan,24,,Yerevan,Soghomon Taronts Street,,Armenia,40.144525,44.483719,Yandex,,,,['A16029']
"սողոմոն տարոնցի փողոց 22, երևան","22 Soghomon Tarontsi Street, Yerevan",OK,Yerevan,Yerevan,22,,Yerevan,Soghomon Taronts Street,,Armenia,40.144911,44.483773,Yandex,,,,['A1025']
"улица согомона таронца 5, ереван","Soghomon Taronts Street 5, Yerevan",OK,Yerevan,Yerevan,5,,Yerevan,Soghomon Taronts Street,,Armenia,40.145952,44.485741,Yandex,,,,['A29445']
"soghomon taronts str, yerevan","Soghomon Taronts Street, Yerevan",OK,Yerevan,Yerevan,,,Yerevan,Soghomon Taronts Street,,Armenia,40.145917,44.485166,Yandex,,,,"['A13525', 'A25420']"
"տարոնցի փողոցի 1-ին նրբանցք 14, երևան","14, 1st Lane, Tarontsi Street, Yerevan",OK,Yerevan,Yerevan,14,,Yerevan,Soghomon Taronts Street,,Armenia,40.145731,44.484564,Yandex,,,,['A28727']
"սիմոն վրացյան փողոց 71, երևան","71 Simon Vratsyan Street, Yerevan",OK,Yerevan,Yerevan,71,,Yerevan,Simon Vratsyan Street,,Armenia,40.171103,44.519751,Yandex,,,,['A30710']
"շոպրոնի փողոց, երևան","Shopron Street, Yerevan",OK,Yerevan,Yerevan,,6,Yerevan,Shopron Street,,Armenia,40.18647136,44.55823313,Nominatim,Nor Nork Block,,,"['A7135', 'A24978']"
"քանաքեռի 6-րդ փողոցի 5-րդ նրբանցք, երևան","5th Alley, 6th Street, Kanaker, Yerevan",OK,Yerevan,Yerevan,,,Yerevan,Shirak Street,,Armenia,40.141126,44.434752,Yandex,,5th Lane,,['A26936']
"շիրակ փողոցի 5-րդ նրբանցք 36, երևան","36, 5th Lane, Shirak Street, Yerevan",OK,Yerevan,Yerevan,29,,Yerevan,Shirak Street,,Armenia,40.140754,44.436055,Yandex,,5th Lane,,['A24306']
"shirak street 4-th lane, yerevan","Shirak Street 4th Lane, Yerevan",OK,Yerevan,Yerevan,,,Yerevan,Shirak Street,,Armenia,40.145773,44.453949,Yandex,,4th Lane,,['A23374']
"գուսան շերամ փողոց 2/4, երևան","2/4 Gusan Sheram Street, Yerevan",OK,Yerevan,Yerevan,2/4,,Yerevan,Shirak Street,,Armenia,40.138851,44.470065,Yandex,,,,['A10971']
"նելսոն ստեփանյանի փողոց 11, երևան","11 Nelson Stepanyan Street, Yerevan",OK,Yerevan,Yerevan,11,,Yerevan,Shirak Street,,Armenia,40.144539,44.462142,Yandex,,,,['A2177']
"նելսոն ստեփանյանի փողոց 10, երևան","10 Nelson Stepanyan Street, Yerevan",OK,Yerevan,Yerevan,10,,Yerevan,Shirak Street,,Armenia,40.142574,44.46525,Yandex,,,,['A26499']
"ղարիբջանյանի փողոց 10, երևան","10 Gharibjanyan Street, Yerevan",OK,Yerevan,Yerevan,10,,Yerevan,Shirak Street,,Armenia,40.142574,44.46525,Yandex,,,,['A10087']
"ջրվեժի 1-ին փողոց 68, երևան","68, 1st Jrvezh Street, Yerevan",OK,Yerevan,Yerevan,68,,Yerevan,Shirak Street,,Armenia,40.149213,44.453114,Yandex,,,,['B630']
"ջրվեժի 1-ին փողոց 40, երևան","40, 1st Jrvezh Street, Yerevan",OK,Yerevan,Yerevan,40,,Yerevan,Shirak Street,,Armenia,40.147241,44.459824,Yandex,,,,['B647']
"շահումյանի 1-ին փողոց 2/1, երևան","2/1 Shahumyan 1st Street, Yerevan",OK,Yerevan,Yerevan,2/1,,,Shahumyan Street,,Armenia,40.167782,44.462832,Azure,,,1st,['A24510']
"շահումյանի 1-ին փողոց 14, երևան","14 Shahumyan 1st Street, Yerevan",OK,Yerevan,Yerevan,14,,Yerevan,Shahumyan Street,,Armenia,40.169676,44.463579,Yandex,,,1st,['A23722']
"շահինյան փողոց 3, գյումրի","3 Shahinyan Street, Gyumri",OK,Shirak,Yerevan,4A,,Gyumri,Shahinyan Street,,Armenia,40.794968,43.833052,Yandex,,,,"['B1427', 'B1431']"
"սասունցի դավթի փողոց, երևան","Sasuntsi Davit Street, Yerevan",OK,Yerevan,Yerevan,,,Yerevan,Sasuntsi Davit Street,,Armenia,40.154741,44.516634,Yandex,,,,['A4208']
"մարտիրոս սարյանի փողոց 35, երևան","35 Martiros Saryan Street, Yerevan",OK,Yerevan,Yerevan,35,,Yerevan,Saryan Street,,Armenia,40.180454,44.505593,Yandex,,,,"['A9249', 'A14844', 'A17350']"
"մարտիրոս սարյանի փողոց 33, երևան","33 Martiros Saryan Street, Yerevan",OK,Yerevan,Yerevan,33,,Yerevan,Saryan Street,,Armenia,40.180894,44.505369,Yandex,,,,['B4965']
"մարտիրոս սարյանի փողոց 25, երևան","25 Martiros Saryan Street, Yerevan",OK,Yerevan,Yerevan,25,,Yerevan,Saryan Street,,Armenia,40.184842,44.506609,Yandex,,,,['A8459']
"մարտիրոս սարյանի փողոց 24բ, երևան","24b Martiros Saryan Street, Yerevan",OK,Yerevan,Yerevan,24B,,Yerevan,Saryan Street,,Armenia,40.184071,44.504219,Yandex,,,,"['A10914', 'A10915']"
"մարտիրոս սարյանի փողոց 24, երևան","24 Martiros Saryan Street, Yerevan",OK,Yerevan,Yerevan,24,,Yerevan,Saryan Street,,Armenia,40.183954,44.504911,Yandex,,,,['A24046']
"մարտիրոս սարյանի փողոց 22, երևան","22 Martiros Saryan Street, Yerevan",OK,Yerevan,Yerevan,22,,Yerevan,Saryan Street,,Armenia,40.184822,44.505513,Yandex,,,,['A21578']
"մարտիրոս սարյանի փողոց 20/1, երևան","20/1 Martiros Saryan Street, Yerevan",OK,Yerevan,Yerevan,20/1,,Yerevan,Saryan Street,,Armenia,40.185545,44.505953,Yandex,,,,['A10908']
"մարտիրոս սարյանի փողոց 18, երևան","18 Martiros Saryan Street, Yerevan",OK,Yerevan,Yerevan,18,,Yerevan,Saryan Street,,Armenia,40.185545,44.506851,Yandex,,,,['A20823']
"մարտիրոս սարյանի փողոց 1, երևան","1 Martiros Saryan Street, Yerevan",OK,Yerevan,Yerevan,1,,Yerevan,Saryan Street,,Armenia,40.187089,44.509717,Yandex,,,,"['A12272', 'A26981']"
"սաֆարյան փողոց, երևան","Safaryan Street, Yerevan",OK,Yerevan,Yerevan,,1,Yerevan,Samvel Safaryan Street,,Armenia,40.19746841,44.56513966,Nominatim,Nor Nork Block,,,['A456']
"սաֆարյան փողոց 4/3, երևան","4/3 Safaryan Street, Yerevan",OK,Yerevan,Yerevan,4/3,1,Yerevan,Samvel Safaryan Street,,Armenia,40.197346,44.564756,Yandex,Nor Nork Block,,,['A18120']
"րաֆֆու փողոց, ստեփանակերտ","Raffi Street, Stepanakert",OK,Yerevan,Yerevan,,,,Raffi Street,,Armenia,40.174076,44.447931,Azure,,,,['A20321']
"ռաֆայել իսրաելյան փողոց 43, երևան","43 Rafael Israelyan Street, Yerevan",OK,Yerevan,Yerevan,43,,Yerevan,Rafael Israyelyan Street,,Armenia,40.179089,44.500374,Yandex,,,,['A335']
"ռաֆայել իսրաելյան փողոց 37, երևան","37 Rafael Israelyan Street, Yerevan",OK,Yerevan,Yerevan,37,,,Rafael Israelyan Street,,Armenia,40.177887,44.50149,Azure,,,,['B6853']
"պուշկինի փողոց 33/21, երևան","33/21 Pushkin Street, Yerevan",OK,Yerevan,Yerevan,33/21,,Yerevan,Pushkin Street,,Armenia,40.183244,44.511549,Yandex,,,,['A3458']
"պռոշյան փողոցի 1-ին նրբանցք 56, երևան","56, Proshyan Street, 1st Lane, Yerevan",OK,Yerevan,Yerevan,56,,Yerevan,Proshyan Street,,Armenia,40.189576,44.504812,Yandex,,1st Lane,,['A19231']
"proshyan avenue 1st line, yerevan","Proshyan Avenue 1st Line, Yerevan",OK,Yerevan,Yerevan,,,Yerevan,Proshyan Street,,Armenia,40.189341,44.505099,Yandex,,1st Lane,,"['B3011', 'B3013']"
"հակոբ պարոնյանի փողոց 6, երևան","6 Hakob Paronyan Street, Yerevan",OK,Yerevan,Yerevan,6,,Yerevan,Paronyan Street,,Armenia,40.178641,44.502629,Yandex,,,,['A26371']
"հակոբ պարոնյանի փողոց 4, երևան","4 Hakob Paronyan Street, Yerevan",OK,Yerevan,Yerevan,4,,Yerevan,Paronyan Street,,Armenia,40.178311,44.502934,Yandex,,,,['A24331']
"պարոնյանի փողոց 4ա, երևան","4a Paronyan Street, Yerevan",OK,Yerevan,Yerevan,4A,,Yerevan,Paronyan Street,,Armenia,40.178476,44.503455,Yandex,,,,['A362']
"պարոնյանի փողոց 39, երևան","39 Paronyan Street, Yerevan",OK,Yerevan,Yerevan,40,,Yerevan,Paronyan Street,,Armenia,40.183837,44.502288,Yandex,,,,['A1857']
"բաղյան փողոցի 1-ին նրբանցք, երևան","1st Alley Of Baghyan Street, Yerevan",OK,Yerevan,Yerevan,,,,Of Baghyan Street,,Armenia,40.193731,44.567289,Azure,,1st Alley,,['A1215']
"շոպրոնի 2-րդ նրբանցք, երևան","2nd Alley Of Sopron, Yerevan",OK,Yerevan,Yerevan,,6,Yerevan,Norq Street Street,,Armenia,40.189851,44.541724,Yandex,Nor Nork Block,2nd Lane,,['A26323']
"վերին շենգավիթ 1ին փողոց, ереван","Upper Shengavit 1st Street, Yerevan",OK,Yerevan,Yerevan,,,Yerevan,Noragavit Street,,Armenia,40.123778,44.47629,Yandex,,,1st,['A22885']
"նորագավիթի 1-ին փողոց 48, երևան","48 Noragavit 1st Street, Yerevan",OK,Yerevan,Yerevan,48,,Yerevan,Noragavit Street,,Armenia,40.121992,44.473533,Yandex,,,1st,['B6477']
"նոր արեշի 9րդ փողոց, երևան","9th New Aresh Street, Yerevan",OK,Yerevan,Yerevan,9,,Yerevan,Nor Aresh Street,,Armenia,40.145697,44.517128,Yandex,,,8th,['A20962']
"նոր արեշի 11րդ փողոց, երևան","11th New Aresh Street, Yerevan",OK,Yerevan,Yerevan,11,,Yerevan,Nor Aresh Street,,Armenia,40.145587,44.517146,Yandex,,,8th,['A7053']
"nor-aresh 42th street, yerevan","Nor-aresh 42th Street, Yerevan",OK,Yerevan,Yerevan,,,Yerevan,Nor Aresh Street,,Armenia,40.146228,44.529839,Yandex,,,42nd,['A19226']
"nor aresh 12-th street, yerevan","Nor Aresh 12th Street, Yerevan",OK,Yerevan,Yerevan,,,Yerevan,Nor Aresh Street,,Armenia,40.142043,44.518826,Yandex,,,12th,['A6710']
"նիկողայոս տիգրանյան փողոցի փակուղի, երևան","Nikoghayos Tigranyan Street Dead End, Yerevan",OK,Yerevan,Yerevan,,,Yerevan,Nikoghayos Tigranyan Street,,Armenia,40.212059,44.50615,Yandex,,Dead End,,['A27774']
"նիկողայոս ադոնց փողոց 7, երևան","Nikoghayos Adonts Street 7, Yerevan",OK,Yerevan,Yerevan,7,,Yerevan,Nikoghayos Tigranyan Street,,Armenia,40.205963,44.519966,Yandex,,,,['A910']
"նիկողայոս ադոնց փողոց 6/1, երևան","Nikoghayos Adonts Street 6/1, Yerevan",OK,Yerevan,Yerevan,6/1,,Yerevan,Nikoghayos Tigranyan Street,,Armenia,40.207479,44.520613,Yandex,,,,"['A26926', 'A30244']"
"նիկողայոս ադոնց փողոց 4, երևան","Nikoghayos Adonts Street 4, Yerevan",OK,Yerevan,Yerevan,4,,Yerevan,Nikoghayos Tigranyan Street,,Armenia,40.2071,44.52055,Yandex,,,,"['A217', 'A5264']"
"նիկողայոս ադոնց փողոց 12, երևան","Nikoghayos Adonts Street 12, Yerevan",OK,Yerevan,Yerevan,12,,Yerevan,Nikoghayos Tigranyan Street,,Armenia,40.210757,44.521161,Yandex,,,,['A21954']
"նիկողայոս ադոնց փողոց, երևան","Nikoghayos Adonts Street, Yerevan",OK,Yerevan,Yerevan,,,Yerevan,Nikoghayos Adonts Street,,Armenia,40.213305,44.519329,Yandex,,,,"['A65', 'A251', 'A549', 'A550', 'A663', 'A903', 'A1715', 'A1973', 'A2845', 'A3048', 'A3244', 'A3333', 'A3519', 'A3601', 'A4259', 'A4428', 'A4446', 'A4478', 'A4680', 'A4692', 'A4907', 'A5121', 'A5238', 'A5676', 'A5697', 'A6199', 'A6313', 'A6331', 'A6484', 'A6989', 'A7004', 'A7099', 'A7292', 'A7686', 'A7804', 'A7965', 'A8269', 'A8563', 'A8803', 'A8930', 'A8978', 'A9156', 'A9164', 'A9243', 'A9963', 'A9980', 'A10054', 'A10449', 'A10481', 'A10493', 'A10510', 'A10608', 'A10624', 'A10705', 'A10922', 'A10962', 'A11131', 'A11447', 'A11537', 'A11744', 'A11919', 'A11924', 'A12013', 'A12035', 'A12109', 'A12347', 'A12369', 'A12398', 'A12465', 'A12601', 'A12890', 'A12892', 'A12895', 'A12897', 'A12902', 'A12924', 'A12930', 'A12935', 'A12950', 'A12969', 'A13007', 'A13009', 'A13010', 'A13020', 'A13026', 'A13032', 'A13041', 'A13055', 'A13062', 'A13067', 'A13069', 'A13076', 'A13083', 'A13086', 'A13116', 'A13118', 'A13361', 'A13872', 'A13961', 'A13962', 'A14004', 'A14072', 'A14416', 'A14806', 'A14839', 'A15145', 'A15173', 'A15253', 'A15276', 'A15298', 'A15441', 'A15823', 'A15855', 'A15867', 'A16115', 'A16181', 'A16326', 'A16337', 'A16431', 'A16550', 'A16626', 'A16705', 'A16710', 'A16741', 'A17048', 'A17131', 'A17297', 'A17345', 'A17558', 'A17765', 'A17914', 'A18037', 'A18049', 'A18256', 'A18503', 'A18507', 'A18658', 'A18842', 'A18892', 'A19084', 'A19286', 'A19512', 'A19610', 'A19893', 'A20042', 'A20047', 'A20049', 'A20209', 'A20263', 'A20397', 'A20417', 'A20632', 'A20735', 'A20802', 'A21009', 'A21312', 'A21389', 'A22393', 'A22568', 'A22570', 'A22632', 'A22674', 'A22677', 'A23127', 'A23458', 'A23536', 'A23745', 'A24586', 'A24801', 'A25227', 'A25513', 'A25517', 'A25599', 'A25712', 'A25853', 'A26258', 'A26269', 'A26719', 'A26932', 'A27449', 'A27468', 'A27470', 'A27555', 'A27561', 'A27565', 'A27590', 'A27894', 'A27984', 'A28016', 'A28161', 'A28498', 'A28530', 'A28999', 'A29086', 'A29902', 'A29907', 'A29908', 'A30434', 'A30540', 'A30905', 'A30995', 'A31044', 'A31075', 'A31076', 'A31443', 'A31558', 'A31863', 'A31966', 'A32035', 'B2223', 'B2334', 'B2352', 'B2463', 'B2491', 'B2620', 'B2671', 'B2738', 'B3139', 'B3313', 'B3456', 'B3676', 'B3684', 'B3726', 'B3734', 'B3737', 'B3742', 'B3754', 'B3776', 'B4062', 'B4228', 'B4603', 'B4878', 'B4956', 'B4995', 'B4999', 'B5017', 'B5473', 'B5566', 'B5817', 'B5905', 'B6013', 'B6044', 'B6352', 'B6503', 'B6562', 'B6592', 'B6593', 'B6863', 'B7042', 'B7063', 'B7065', 'B7066', 'B7069', 'B7086', 'B7090', 'B7100', 'B7266', 'B7317', 'B7334', 'B7826', 'B8108', 'B8143']"
"նիկողայոս ադոնց փողոց , երևան","Nikoghayos Adonts Street, Yerevan",OK,Yerevan,Yerevan,,,,Nikoghayos Adonts Street,,Armenia,40.212317,44.523183,Azure,,,,"['A15961', 'A20331', 'A23367', 'A23370', 'A27820', 'B2462']"
"նոր արեշի 7րդ փողոց, yerevan","7th New Aresh Street, Yerevan",OK,Yerevan,Yerevan,,,,New Aresh Street,,Armenia,40.147583,44.528362,Azure,,,7th,['A574']
"nerqin shengavit 13-th street 13, yerevan","Nerqin Shengavit 13th Street 13, Yerevan",OK,Yerevan,Yerevan,11,,Yerevan,Nerkin Shengavit Street,,Armenia,40.135762,44.487609,Yandex,,,13th,['A22884']
"ներքին շենգավիթի 11-րդ փողոց 37/1, երևան","37/1, Nerkin Shengavit 11th Street, Yerevan",OK,Yerevan,Yerevan,37/1,,Yerevan,Nerkin Shengavit Street,,Armenia,40.137851,44.481914,Yandex,,,11th,['B4892']
"նելսոն ստեփանյան փողոց, երևան","Nelson Stepanyan Street, Yerevan",OK,Yerevan,Yerevan,,Bagrevand,Yerevan,Nelson Stepanyan Street,,Armenia,40.2011,44.575186,Yandex,,,,"['A3585', 'A4373', 'A29137']"
"улица нелсона степаняна, ереван","Nelson Stepanyan Street, Yerevan",OK,Yerevan,Yerevan,,Bagrevand,Yerevan,Nelson Stepanyan Street,,Armenia,40.20046937,44.5785632,Nominatim,,,,"['A6002', 'A24778', 'B6774']"
"nelson stepanyan street, yerevan","Nelson Stepanyan Street, Yerevan",OK,Yerevan,Yerevan,,Bagrevand,Yerevan,Nelson Stepanyan Street,,Armenia,40.20046937,44.5785632,Nominatim,,,,"['A1196', 'A3084', 'A3584', 'A3952', 'A5965', 'A9302', 'A9305', 'A9768', 'A10936', 'A11272', 'A11562', 'A12157', 'A12645', 'A13924', 'A15028', 'A16260', 'A16339', 'A16652', 'A17407', 'A19544', 'A23184', 'A23780', 'A23786', 'A25120', 'A25676', 'A25851', 'A27931', 'A28175', 'A28545', 'A29449', 'A30804', 'A30908', 'A31857', 'B2898', 'B4270', 'B6029', 'B6381', 'B6382', 'B7237', 'B7457']"
"նելսոն ստեփանյանի փողոց, երևան","Nelson Stepanyan Street, Yerevan",OK,Yerevan,Yerevan,1,,Yerevan,Nelson Stepanyan Street,,Armenia,40.222836,44.482794,Yandex,,,,"['A645', 'A28925', 'A32054']"
"նելսոն ստեփանյան փողոց 6, երևան","6 Nelson Stepanyan Street, Yerevan",OK,Yerevan,Yerevan,6,2,Yerevan,Nelson Stepanyan Street,,Armenia,40.200129,44.571386,Yandex,Nor Nork Block,,,['A23843']
"նար-դոս փողոցի 3-րդ նրբանցք 1, երևան","1, Nar-dos Street, 3rd Alley, Yerevan",OK,Yerevan,Yerevan,1,,Yerevan,Nar-dos Street,,Armenia,40.167795,44.522913,Yandex,,3rd Lane,,['A17999']
"նանսեն փողոցի նրբանցք, երևան","Nansen Street Alley, Yerevan",OK,Yerevan,Yerevan,,,Yerevan,Nansen Street Lane,,Armenia,40.200412,44.563732,Yandex,,,,['A25395']
"նանսենի նրբանցք 2, երևան","Nansen Alley 2, Yerevan",OK,Yerevan,Yerevan,2(88),1,Yerevan,Nansen Street Lane,,Armenia,40.20084435,44.56405117,Nominatim,Nor Nork Block,,,['A811']
"переулок улицы нансена, ереван","Nansen Street Alley, Yerevan",OK,Yerevan,Yerevan,,,Yerevan,Nansen Street,,Armenia,40.198579,44.561514,Yandex,,,,['A843']
"նանսեն փողոցի նրբանցք 2, երևան","Nansen Street Alley 2, Yerevan",OK,Yerevan,Yerevan,2,,Yerevan,Nansen Street,,Armenia,40.198579,44.561514,Yandex,,,,['A2646']
"նանսենի փողոց, երևան","Nansen Street, Yerevan",OK,Yerevan,Yerevan,,1,Yerevan,Nansen Street,,Armenia,40.198579,44.561514,Yandex,Nor Nork Block,,,"['A2666', 'A27957', 'A28370', 'A31671']"
"նանսենի փողոց 9, երևան","Nansen Street 9, Yerevan",OK,Yerevan,Yerevan,9,1,Yerevan,Nansen Street,,Armenia,40.198428,44.561855,Yandex,Nor Nork Block,,,['A2685']
"նանսենի փողոց 3/13, երևան","Nansen Street 3/13, Yerevan",OK,Yerevan,Yerevan,3/13,1,Yerevan,Nansen Street,,Armenia,40.199268,44.564478,Yandex,Nor Nork Block,,,['A18125']
"նանսենի փողոց 20, երևան","Nansen Street 20, Yerevan",OK,Yerevan,Yerevan,20,1,Yerevan,Nansen Street,,Armenia,40.19838895,44.55726955,Nominatim,Nor Nork Block,,,['A129']
"նանսենի փողոց 17, երևան","Nansen Street 17, Yerevan",OK,Yerevan,Yerevan,17,1,Yerevan,Nansen Street,,Armenia,40.1978857,44.5596539,Nominatim,Nor Nork Block,,,"['A660', 'A19578']"
"նանսենի նրբանցք, երևան","Nansen Alley, Yerevan",OK,Yerevan,Yerevan,,1,Yerevan,Nansen Street,,Armenia,40.198579,44.561514,Yandex,Nor Nork Block,,,"['A419', 'A26388']"
"միքայել նալբանդյանի փողոց 33ա, երևան","33a Mikael Nalbandyan Street, Yerevan",OK,Yerevan,Yerevan,33,,Yerevan,Nalbandyan Street,,Armenia,40.183451,44.521548,Yandex,,,,['A29025']
"միքայել նալբանդյանի փողոց 13, երևան","13 Mikael Nalbandyan Street, Yerevan",OK,Yerevan,Yerevan,13,,Yerevan,Nalbandyan Street,,Armenia,40.180143,44.517433,Yandex,,,,['A16357']
"nalbandyan street 3լ, yerevan","Nalbandyan Street 3, Yerevan",OK,Yerevan,Yerevan,3,,Yerevan,Nalbandyan Street,,Armenia,40.178986,44.515349,Yandex,,,,['A2002']
"միքայել նալբանդյանի փողոց 3, երևան","3 Mikael Nalbandyan Street, Yerevan",OK,Yerevan,Yerevan,3,,Yerevan,Nalbandyan Street,,Armenia,40.178986,44.515349,Yandex,,,,['A981']
"միքայել նալբանդյանի փողոց 25/27, երևան","25/27 Mikael Nalbandyan Street, Yerevan",OK,Yerevan,Yerevan,25/27,,Yerevan,Nalbandyan Street,,Armenia,40.182576,44.520712,Yandex,,,,['A20926']
"մովսես խորենացի փողոց 2-րդ նրբանցք, երևան","Movses Khorenatsi Street, 2nd Lane, Yerevan",OK,Yerevan,Yerevan,,Old Yerevan Quarter,Yerevan,Movses Khorenatsi Street,,Armenia,40.180102,44.512268,Yandex,,,,"['A10117', 'A17002', 'A26831', 'A29550']"
"մովսես խորենացի փողոց 1-ին նրբանցք, երևան","Movses Khorenatsi Street, 1st Lane, Yerevan",OK,Yerevan,Yerevan,,,,Movses Khorenatsi Street,,Armenia,40.16267,44.516311,Azure,,,,['A3095']
"մովսես խորենացի փողոց 1-ին նրբանցք 38/1, երևան","38/1, Movses Khorenatsi Street, 1st Lane, Yerevan",OK,Yerevan,Yerevan,47,,Yerevan,Movses Khorenatsi Street,,Armenia,40.169945,44.515223,Yandex,,1st Lane,,['B4058']
"մովսես խորենացու փողոցի 1-ին անցուղի 9, երևան","9, Movses Khorenatsi Street, 1st Passage, Yerevan",OK,Yerevan,Yerevan,9,,Yerevan,Movses Khorenatsi Street,,Armenia,40.17306,44.509196,Yandex,,1st Lane,,"['A3760', 'A11317', 'A11318', 'A11321', 'A15445', 'A16931', 'A17601', 'A19909', 'A19912', 'A19918', 'A19920', 'A22907', 'A22909', 'A24044', 'A24071', 'A24416', 'A24958', 'A24963', 'A26590', 'A26611', 'A27276', 'A27280', 'A31082', 'B5181']"
"մովսես խորենացի փողոց 2, գյումրի","2 Movses Khorenatsi Street, Gyumri",OK,Shirak,Yerevan,2,,Gyumri,Movses Khorenatsi Street,,Armenia,40.832048,43.833761,Yandex,,,,['B1469']
"մոլդովական, երևան","Moldovan, Yerevan",OK,Yerevan,Yerevan,,,Yerevan,Moldovakan Street,,Armenia,40.19871,44.568511,Yandex,,,,['A2348']
"մոլդովական փողոց, երևան","Moldovan Street, Yerevan",OK,Yerevan,Yerevan,,,Yerevan,Moldovakan Street,,Armenia,40.1983953,44.57356127,Nominatim,,,,"['A848', 'A1010', 'A3731', 'A3967', 'A19318', 'A24345', 'A26644']"
"մոլդովական փողոց, yerevan","Moldovan Street, Yerevan",OK,Yerevan,Yerevan,,,Yerevan,Moldovakan Street,,Armenia,40.1983953,44.57356127,Nominatim,,,,"['A22130', 'A24023', 'A25973', 'A28367', 'A28368', 'A30754']"
"մոլդովական փողոց 6, yerevan","Moldovan Street 6, Yerevan",OK,Yerevan,Yerevan,43/6,,Yerevan,Moldovakan Street,,Armenia,40.1993596,44.5750015,Nominatim,,,,"['A28441', 'A30029']"
"մոլդովական փողոց 39/5, երևան","Moldovan Street 39/5, Yerevan",OK,Yerevan,Yerevan,39/5,,Yerevan,Moldovakan Street,,Armenia,40.201803,44.577324,Yandex,,,,['A18126']
"մոլդովական փողոց 39/12, երևան","Moldovan Street 39/12, Yerevan",OK,Yerevan,Yerevan,39/12,,Yerevan,Moldovakan Street,,Armenia,40.20234,44.574845,Yandex,,,,"['A1481', 'A2587']"
"մոլդովական փողոց 29/5, yerevan","Moldovan Street 29/5, Yerevan",OK,Yerevan,Yerevan,29/5,,Yerevan,Moldovakan Street,,Armenia,40.207086,44.57120696,Nominatim,,,,['A2995']
"մոլդովական փողոց 29/1, երևան","Moldovan Street 29/1, Yerevan",OK,Yerevan,Yerevan,29/1,,Yerevan,Moldovakan Street,,Armenia,40.208994,44.571691,Yandex,,,,"['A8238', 'A26173', 'A29938']"
"մոլդովական փողոց 26/1, երևան","Moldovan Street 26/1, Yerevan",OK,Yerevan,Yerevan,26/1,,Yerevan,Moldovakan Street,,Armenia,40.203842,44.572536,Yandex,,,,['A2259']
"մոլդովական փողոց 139/1, yerevan","Moldovan Street 139/1, Yerevan",OK,Yerevan,Yerevan,139/1,,Yerevan,Moldovakan Street,,Armenia,40.1989253,44.5713288,Nominatim,,,,['A24556']
"մոլդովական 139/1, երևան","Moldovakan 139/1, Yerevan",OK,Yerevan,Yerevan,139/1,,Yerevan,Moldovakan Street,,Armenia,40.1989253,44.5713288,Nominatim,,,,['A2802']
"մոլդովական փողոց 2/5, երևան","2/5 Moldovan Street, Yerevan",OK,Yerevan,Yerevan,2,2,Yerevan,Moldovakan Street,,Armenia,40.203897,44.565547,Yandex,Nor Nork Block,,,['A24856']
"ներքին շենգավիթի 5-րդ փողոց 25/1, երևան","25/1, Nerkin Shengavit 5th Street, Yerevan",OK,Yerevan,Yerevan,25/1,,Yerevan,Mkrtich Sedrakyan Street,,Armenia,40.139754,44.484995,Yandex,,,,['A11263']
"ներքին շենգավիթի 5-րդ փողոց 21, երևան","21, Nerkin Shengavit 5th Street, Yerevan",OK,Yerevan,Yerevan,21,,Yerevan,Mkrtich Sedrakyan Street,,Armenia,40.13943,44.48495,Yandex,,,,"['A4251', 'A22103']"
"nerqin shengavit 5-th street, yerevan","Nerqin Shengavit 5th Street, Yerevan",OK,Yerevan,Yerevan,,,Yerevan,Mkrtich Sedrakyan Street,,Armenia,40.139658,44.485166,Yandex,,,,"['A19188', 'A22108', 'A26810']"
"nerqin shengavit 5-th street 25, yerevan","Nerqin Shengavit 5th Street 25, Yerevan",OK,Yerevan,Yerevan,25/1,,Yerevan,Mkrtich Sedrakyan Street,,Armenia,40.139754,44.484995,Yandex,,,,['A2698']
"nerqin shengavit 5-th street 21, yerevan","Nerqin Shengavit 5th Street 21, Yerevan",OK,Yerevan,Yerevan,21,,Yerevan,Mkrtich Sedrakyan Street,,Armenia,40.13943,44.48495,Yandex,,,,['A21937']
"5-я улица неркин шенгавита 21, ереван","5th Street Nerkin Shengavit 21, Yerevan",OK,Yerevan,Yerevan,21,,Yerevan,Mkrtich Sedrakyan Street,,Armenia,40.13943,44.48495,Yandex,,,,"['A6138', 'A6254', 'A29176', 'A31227']"
"մինսկի փողոց, երևան","Minsk Street, Yerevan",OK,Yerevan,Yerevan,,,Yerevan,Minsk Street,,Armenia,40.177608,44.576515,Yandex,,,,"['A1508', 'A1949', 'A3179', 'A6325', 'A23494', 'A24057']"
"մինսկի փողոց 95, երևան","Minsk Street 95, Yerevan",OK,Yerevan,Yerevan,95,,Yerevan,Minsk Street,,Armenia,40.17527581,44.57069511,Nominatim,,,,['B8042']
"մինսկի փողոց 34/2, երևան","Minsk Street 34/2, Yerevan",OK,Yerevan,Yerevan,34,,Yerevan,Minsk Street,,Armenia,40.173714,44.569365,Yandex,,,,['A2333']
"մինսկի փողոց 21, երևան","Minsk Street 21, Yerevan",OK,Yerevan,Yerevan,21,,Yerevan,Minsk Street,,Armenia,40.174865,44.575114,Yandex,,,,"['A4606', 'A28788']"
"մինսկի փողոց 18, երևան","Minsk Street 18, Yerevan",OK,Yerevan,Yerevan,18,,Yerevan,Minsk Street,,Armenia,40.1743026,44.57423409,Nominatim,,,,['A21877']
"մինսկի փողոց 17, երևան","Minsk Street 17, Yerevan",OK,Yerevan,Yerevan,17,,Yerevan,Minsk Street,,Armenia,40.174066,44.574045,Yandex,,,,['A82']
"մինսկի փողոց 15, երևան","Minsk Street 15, Yerevan",OK,Yerevan,Yerevan,15,,Yerevan,Minsk Street,,Armenia,40.1753027,44.5745027,Nominatim,,,,['A25597']
"մինսկի փողոց 12, երևան","Minsk Street 12, Yerevan",OK,Yerevan,Yerevan,12,,Yerevan,Minsk Street,,Armenia,40.174783,44.573776,Yandex,,,,['A21907']
"հունան ավետիսյանի փողոց 29, երևան","Hunan Avetisyan Street 29, Yerevan",OK,Yerevan,Yerevan,29,,Yerevan,Minas Avetiyan Street,,Armenia,40.20783,44.543332,Yandex,,,,['A18127']
"միքայել նալբանդյանի փողոց 7/1, երևան","7/1 Mikael Nalbandyan Street, Yerevan",OK,Yerevan,Yerevan,7/1,,,Mikael Nalbandyan Street,,Armenia,40.179643,44.515466,Azure,,,,['A294']
"միքայել նալբանդյանի փողոց, երևան","Mikael Nalbandyan Street, Yerevan",OK,Yerevan,Yerevan,,,,Mikael Nalbandyan Street,,Armenia,40.179964,44.517358,Azure,,,,"['A3533', 'A6137', 'A26591', 'A27286', 'A29598']"
"մայիսյան փողոց, երևան","Mayisyan Street, Yerevan",OK,Yerevan,Yerevan,,,,Mayisyan Street,,Armenia,40.181551,44.506141,Azure,,,,['A3282']
"մարտիրոսյանի փողոց, երևան","Martirosyan Street, Yerevan",OK,Yerevan,Yerevan,,,Yerevan,Martirosyan Street,,Armenia,40.191863,44.458441,Yandex,,,,['A1864']
"մարտիրոս սարյանի փողոց 9, երևան","9 Martiros Saryan Street, Yerevan",OK,Yerevan,Yerevan,9,,,Martiros Saryan Street,,Armenia,40.186537,44.508782,Azure,,,,['B2694']
"մարտիրոս սարյանի փողոց 4, երևան","4 Martiros Saryan Street, Yerevan",OK,Yerevan,Yerevan,4,,,Martiros Saryan Street,,Armenia,40.187437,44.509047,Azure,,,,"['A671', 'A22335']"
"մարտիրոս սարյանի փողոց 31, երևան","31 Martiros Saryan Street, Yerevan",OK,Yerevan,Yerevan,31,,,Martiros Saryan Street,,Armenia,40.181363,44.505183,Azure,,,,"['A12456', 'A16795']"
"մարտիրոս սարյանի փողոց 26/4, երևան","26/4 Martiros Saryan Street, Yerevan",OK,Yerevan,Yerevan,26/4,,,Martiros Saryan Street,,Armenia,40.182696,44.504498,Azure,,,,['A17177']
"մարտիրոս սարյանի փողոց 12, երևան","12 Martiros Saryan Street, Yerevan",OK,Yerevan,Yerevan,12,,,Martiros Saryan Street,,Armenia,40.186663,44.508248,Azure,,,,['A28903']
"margarian 2-nd lane 7/1, yerevan","Margarian 2nd Lane 7/1, Yerevan",OK,Yerevan,Yerevan,7/1,,Yerevan,Margaryan Street,,Armenia,40.206349,44.470559,Yandex,,2nd Lane,,['A3299']
"2-й переулок улицы маргаряна, ереван","2nd Lane Of Margaryan Street, Yerevan",OK,Yerevan,Yerevan,,,Yerevan,Margaryan Street,,Armenia,40.207238,44.471098,Yandex,,2nd Lane,,['A27147']
"մարգարյան փողոցի 1-ին նրբանցք 10, երևան","10 Margaryan Street, 1st Alley, Yerevan",OK,Yerevan,Yerevan,10,,Yerevan,Margaryan Street,,Armenia,40.208002,44.475203,Yandex,,1st Lane,,['A21628']
"1-й переулок улицы маргаряна, ереван","1st Lane Of Margaryan Street, Yerevan",OK,Yerevan,Yerevan,,,Yerevan,Margaryan Street,,Armenia,40.206638,44.474736,Yandex,,1st Lane,,['A21750']
"մառի փողոց, երևան","Mari Street, Yerevan",OK,Yerevan,Yerevan,,5,Yerevan,Mar Street,,Armenia,40.185228,44.568017,Yandex,Nor Nork Block,,,"['A27063', 'A28365']"
"մանթաշյանի փողոց, երևան","Mantashyan Street, Yerevan",OK,Yerevan,Yerevan,1,,Yerevan,Mantashyan Street,,Armenia,40.222836,44.482794,Yandex,,,,"['A2844', 'A3137', 'A31409']"
"մանանդյանի փողոց, երևան","Manandyan Street, Yerevan",OK,Yerevan,Yerevan,1,,Yerevan,Manandyan Street,,Armenia,40.222836,44.482794,Yandex,,,,"['A883', 'A4271', 'A25608', 'A26050', 'B295']"
"մալաթիայի փողոց 82/77, երևան","82/77 Malatia Street, Yerevan",OK,Yerevan,Yerevan,82,,Yerevan,Malatiya Street,,Armenia,40.175754,44.454695,Yandex,,,,['A2689']
"լյուքսեմբուրգ փողոցի 2-րդ նրբանցք 10, երևան","10, 2nd Lane, Luxembourg Street, Yerevan",OK,Yerevan,Yerevan,10,,Yerevan,Lyuksemburg Street,,Armenia,40.188336,44.561109,Yandex,,2nd Lane,,['A25524']
"1-й переулок улицы люксембурга, ереван","1st Lane Of Luxemburg Street, Yerevan",OK,Yerevan,Yerevan,,,Yerevan,Lyuksemburg Street,,Armenia,40.189217,44.563319,Yandex,,1st Lane,,['A30971']
"улица люксембурга 16, ереван","Luxemburg Street 16, Yerevan",OK,Yerevan,Yerevan,16,,Yerevan,Lyuksemburg Street,,Armenia,40.18992,44.56446,Yandex,,,,['A1007']
"улица люксембурга 1, ереван","Luxemburg Street 1, Yerevan",OK,Yerevan,Yerevan,1,,Yerevan,Lyuksemburg Street,,Armenia,40.188025,44.564218,Yandex,,,,['A25494']
"переулок улицы львовяна, ереван","Lvovyan Street Alley, Yerevan",OK,Yerevan,Yerevan,,,Yerevan,Lvovyan Street,,Armenia,40.201066,44.558729,Yandex,,,,"['A6439', 'A28237']"
"լվովյան փողոց, երևան","Lvovyan Street, Yerevan",OK,Yerevan,Yerevan,,1,Yerevan,Lvovyan Street,,Armenia,40.201066,44.558729,Yandex,Nor Nork Block,,,"['A3004', 'A3582', 'A6633', 'A7016', 'A28588', 'A29625']"
"լվովյան փողոց 25, երևան","25 Lvovyan Street, Yerevan",OK,Yerevan,Yerevan,25,1,Yerevan,Lvovyan Street,,Armenia,40.197188,44.554713,Yandex,Nor Nork Block,,,"['A2429', 'A6772']"
"լվովյան փողոց 19, երևան","19 Lvovyan Street, Yerevan",OK,Yerevan,Yerevan,19,1,Yerevan,Lvovyan Street,,Armenia,40.199137,44.555719,Yandex,Nor Nork Block,,,['A26586']
"լյուքսեմբուրգի փողոց 2-րդ նրբանցք, երևան","Luxembourg Street, 2nd Lane, Yerevan",OK,Yerevan,Yerevan,,6,Yerevan,Luxemburg Street,,Armenia,40.18933567,44.56210269,Nominatim,Nor Nork Block,2nd Lane,,['A22012']
"լյուքսեմբուրգի փողոց 1-ին նրբանցք 77, երևան","Luxembourg Street 1st Lane 77, Yerevan",OK,Yerevan,Yerevan,77,6,Yerevan,Luxemburg Street,,Armenia,40.18876011,44.5631513,Nominatim,Nor Nork Block,1st Lane,,['A2034']
"լյուքսեմբուրգի փողոց, երևան","Luxembourg Street, Yerevan",OK,Yerevan,Yerevan,,6,Yerevan,Luxemburg Street,,Armenia,40.18964341,44.5614603,Nominatim,Nor Nork Block,,,"['A1041', 'A4763']"
"յոհաննես լեփսիուսի փողոց 1, երևան","1 Johannes Lepsius Street, Yerevan",OK,Yerevan,Yerevan,1,,Yerevan,Lepsius Street,,Armenia,40.210247,44.543251,Yandex,,,,"['A29538', 'B3786']"
"յոհաննես լեփսիուսի փողոց 6ա, երևան","6a Johannes Lepsius Street, Yerevan",OK,Yerevan,Yerevan,6A,,Yerevan,Lepsius Street,,Armenia,40.210247,44.54273,Yandex,,,,"['A26024', 'A32353']"
"յոհաննես լեփսիուսի փողոց 2ա, երևան","2a Johannes Lepsius Street, Yerevan",OK,Yerevan,Yerevan,2A,,Yerevan,Lepsius Street,,Armenia,40.209531,44.543898,Yandex,,,,['A6028']
"յոհաննես լեփսիուսի փողոց 27, երևան","27 Johannes Lepsius Street, Yerevan",OK,Yerevan,Yerevan,27,,Yerevan,Lepsius Street,,Armenia,40.208911,44.549243,Yandex,,,,['A29619']
"մարշալ խուդյակով փողոցի 2-րդ նրբանցք 16, երևան","16, 2nd Lane, Marshal Khudyakov Street, Yerevan",OK,Yerevan,Yerevan,16,,Yerevan,Kievyan Street,,Armenia,40.194694,44.489747,Yandex,,2nd Lane,,['A31037']
"մովսես խորենացի փողոց 1-րդ նրբանցք, երևան","Movses Khorenatsi Street, 1st Lane, Yerevan",OK,Yerevan,Yerevan,,,Yerevan,Khorenatsi Street,,Armenia,40.165969,44.515071,Yandex,,,,['A20245']
"մայիսյան փողոց 33ա, երևան","33a Mayisyan Street, Yerevan",OK,Yerevan,Yerevan,33A,,Yerevan,Khoren Abrahamyan Street,,Armenia,40.180695,44.506016,Yandex,,,,['A24394']
"մայիսյան փողոց 22, երևան","22 Mayisyan Street, Yerevan",OK,Yerevan,Yerevan,22,,Yerevan,Khoren Abrahamyan Street,,Armenia,40.181191,44.505773,Yandex,,,,['A4911']
"խանջյան փողոց, երևան","Khanjyan Street, Yerevan",OK,Yerevan,Yerevan,,,Yerevan,Khanjyan Street,,Armenia,40.176188,44.521458,Yandex,,,,"['A28122', 'A30813']"
"աղասի խանջյանի փողոց, երևան","Aghasi Khanjyan Street, Yerevan",OK,Yerevan,Yerevan,,,Yerevan,Khanjyan Street,,Armenia,40.176188,44.521458,Yandex,,,,"['A2304', 'A2532']"
"աղասի խանջյանի փողոց 7, երևան","7 Aghasi Khanjyan Street, Yerevan",OK,Yerevan,Yerevan,7,,Yerevan,Khanjyan Street,,Armenia,40.173832,44.51631,Yandex,,,,"['A20755', 'A29066']"
"աղասի խանջյանի փողոց 1, երևան","1 Aghasi Khanjyan Street, Yerevan",OK,Yerevan,Yerevan,1,,Yerevan,Khanjyan Street,,Armenia,40.173639,44.514289,Yandex,,,,['A14278']
"aghasi khanjyan street 35, yerevan","Aghasi Khanjyan Street 35, Yerevan",OK,Yerevan,Yerevan,35,,Yerevan,Khanjyan Street,,Armenia,40.178187,44.522554,Yandex,,,,['A24043']
"աղասի խանջյանի փողոց 20/6, երևան","20/6 Aghasi Khanjyan Street, Yerevan",OK,Yerevan,Yerevan,20/6,,Yerevan,Khanjyan Street,,Armenia,40.176175,44.522536,Yandex,,,,['A17810']
"խաչատուր աբովյանի փողոց 22/22, երևան","22/22 Khachatur Abovyan Street, Yerevan",OK,Yerevan,Yerevan,22/22,,,Khachatur Abovyan Street,,Armenia,40.183044,44.518509,Azure,,,,"['A14968', 'A25383']"
"khachatur abovyan street 4th lane 4, armavir","Khachatur Abovyan Street 4th Lane 4, Armavir",OK,Armavir,Yerevan,4,,Armavir,Khachatur Abovyan Street,,Armenia,40.158063,44.034499,Yandex,,4th Lane,,['B215']
"խաչատուր աբովյանի փողոց, երևան","Khachatur Abovyan Street, Yerevan",OK,Armavir,Yerevan,,,,Khachatur Abovyan Street,Parakar,Armenia,40.164128,44.422257,Yandex,,,,['B5864']
"խաչատուր աբովյանի փողոց 29, երևան","29 Khachatur Abovyan Street, Yerevan",OK,Kotayk,Yerevan,29,,,Khachatur Abovyan Street,Arinj,Armenia,40.223463,44.586136,Yandex,,,2nd,['A16313']
"խաչատուր աբովյանի փողոց 26բ, երևան","26b Khachatur Abovyan Street, Yerevan",OK,Kotayk,Yerevan,26,,,Khachatur Abovyan Street,Arinj,Armenia,40.222864,44.585966,Yandex,,,2nd,['A20234']
"խաչատուր աբովյանի փողոց 21, երևան","21 Khachatur Abovyan Street, Yerevan",OK,Kotayk,Yerevan,21,,,Khachatur Abovyan Street,Arinj,Armenia,40.222629,44.585166,Yandex,,,2nd,['A28528']
"կարապետ ուլնեցու փողոցի 3-րդ փակուղի 1, երևան","1 Karapet Ulnetsi Street, 3rd Dead End, Yerevan",OK,Yerevan,Yerevan,1,,,Karapet Ulnetsi Street,,Armenia,40.208392,44.538853,Azure,,,,['A23791']
"քանաքեռի 17-րդ փողոց, երևան","17th Kanaker Street, Yerevan",OK,Yerevan,Yerevan,,,Yerevan,Kanaker Street,,Armenia,40.217086,44.545263,Yandex,,,17th,['A21916']
"քանաքեռի 17-րդ փողոց 14, երևան","14 Kanaker 17th Street, Yerevan",OK,Yerevan,Yerevan,14,,Yerevan,Kanaker Street,,Armenia,40.216817,44.545604,Yandex,,,17th,['A23758']
"քաջազնունի փողոց 6շ, երևան","6 Kajaznuni Street, Yerevan",OK,Yerevan,Yerevan,6,,Yerevan,Kajaznuni Street,,Armenia,40.169807,44.518924,Yandex,,,,['A20880']
"քաջազնունու փողոց, երևան","Kajaznuni Street, Yerevan",OK,Yerevan,Yerevan,,,Yerevan,Kajaznuni Street,,Armenia,40.168622,44.520281,Yandex,,,,['A29014']
"улица каджазнуни 9, ереван","9 Kajaznuni Street, Yerevan",OK,Yerevan,Yerevan,9,,Yerevan,Kajaznuni Street,,Armenia,40.16887,44.520496,Yandex,,,,['A29097']
"улица каджазнуни 6, ереван","6 Kajaznuni Street, Yerevan",OK,Yerevan,Yerevan,6,,Yerevan,Kajaznuni Street,,Armenia,40.169807,44.518924,Yandex,,,,"['A1076', 'A24169']"
"քաջազնունու փողոց 3, երևան","3 Kajaznuni Street, Yerevan",OK,Yerevan,Yerevan,3,,Yerevan,Kajaznuni Street,,Armenia,40.170152,44.519966,Yandex,,,,"['A23113', 'A23159', 'A23413']"
"քաջազնունու փողոց 2, երևան","2 Kajaznuni Street, Yerevan",OK,Yerevan,Yerevan,2,,Yerevan,Kajaznuni Street,,Armenia,40.170786,44.518942,Yandex,,,,['B2684']
"կ. հալաբյան փողոց, գյումրի","K. Halabyan Street, Gyumri",OK,Shirak,Yerevan,,Mush 2nd District,Gyumri,K. Halabyan Street,,Armenia,40.81365663,43.8175474,Nominatim,,,,"['B1383', 'B1533', 'B1585']"
"ջուղայի փողոց, երևան","Jugha Street, Yerevan",OK,Yerevan,Yerevan,,1,Yerevan,Jugha Street,,Armenia,40.197009,44.559286,Yandex,Nor Nork Block,,,['A1218']
"ջրվեժի 1-ին փողոց, երևան","1st Jrvezh Street, Yerevan",OK,Yerevan,Yerevan,1,,Yerevan,Jrvezh Street,,Armenia,40.222836,44.482794,Yandex,,,,['A20179']
"թևոսյան փողոց 1, երևան","1 Tevosyan Street, Yerevan",OK,Yerevan,Yerevan,1,,Yerevan,Ivan Tevosyan Street,,Armenia,40.1892698,44.59063541,Nominatim,,,,['B3417']
"հունան ավետիսյանի փողոց 10, երևան","Hunan Avetisyan Street 10, Yerevan",OK,Yerevan,Yerevan,10,,,Hunan Avetisyan Street,,Armenia,40.175727,44.562053,Azure,,,,['A18145']
"հրաչյա քոչարի փողոց 25, երևան","25 Hrachya Kochar Street, Yerevan",OK,Yerevan,Yerevan,25,,,Hrachya Kochar Street,,Armenia,40.202125,44.502925,Azure,,,,['A3365']
"հրաչյա քոչարի փողոց, երևան","Hrachya Kochar Street, Yerevan",OK,Yerevan,Yerevan,,,Yerevan,Hrachya Kochar Street,,Armenia,40.201348,44.501821,Yandex,,,,"['A881', 'A6204', 'A23065', 'A29577']"
"hrachya qochar street, երևան","Hrachya Qochar Street, Yerevan",OK,Yerevan,Yerevan,,,Yerevan,Hrachya Kochar Street,,Armenia,40.201348,44.501821,Yandex,,,,"['A5267', 'A22081', 'A28051', 'A28608']"
"hrachya qochar street 147/1, երևան","Hrachya Qochar Street 147/1, Yerevan",OK,Yerevan,Yerevan,147/1,,Yerevan,Hrachya Kochar Street,,Armenia,40.203773,44.506752,Yandex,,,,['A31264']
"հովհաննես շիրազի փողոց, գյումրի","Hovhannes Shiraz Street, Gyumri",OK,Shirak,Yerevan,,,Gyumri,Hovhannes Shiraz Street,,Armenia,40.78766631,43.8384454,Nominatim,,,,['B1577']
"ակսել բակունց փողոց, երևան","Aksel Bakunts Street, Yerevan",OK,Yerevan,Yerevan,,,Yerevan,Hakob Hakobyan Street Lane,,Armenia,40.201369,44.491894,Yandex,,,,['A20389']
"հաղթանակի 9-րդ փողոց 14, երևան","14 Haghtanak 9th Street, Yerevan",OK,Yerevan,Yerevan,14,,,Haghtanak Street,,Armenia,40.185671,44.423446,Azure,,,9th,['A29549']
"հաղթանակի 1–ին փողոց 64, երևան","64 Haghtanak 1st Street, Yerevan",OK,Yerevan,Yerevan,64,,Yerevan,Haghtanak Street,,Armenia,40.181239,44.434591,Yandex,,,1st,['A25165']
"գյուրջյան փողոց 11/3, երևան","11/3 Gyurjyan Street, Yerevan",OK,Yerevan,Yerevan,11/3,,Yerevan,Gyurjyan Street,,Armenia,40.193227,44.562232,Yandex,,,,"['A3181', 'A28893']"
"գյուրջյան փողոց 1/3, երևան","1/3 Gyurjyan Street, Yerevan",OK,Yerevan,Yerevan,1,,Yerevan,Gyurjyan Street,,Armenia,40.19539,44.563634,Yandex,Nor Nork Block,,,['A13929']
"գյուլբեկյան փողոց , երևան","Gyulbekyan Street, Yerevan",OK,Yerevan,Yerevan,1,,Yerevan,Gyulikevkhyan Street,,Armenia,40.222836,44.482794,Yandex,,,,['A13594']
"հայկ գյուլիքևխյանի փողոց, երևան","Hayk Gyulikevkhyan Street, Yerevan",OK,Yerevan,Yerevan,,,Yerevan,Gyulikevkhyan Street,,Armenia,40.186916,44.572527,Yandex,,,,"['A6013', 'A15098', 'A15101', 'A27082']"
"հայկ գյուլիքևխյանի փողոց 4, երևան","4 Hayk Gyulikevkhyan Street, Yerevan",OK,Yerevan,Yerevan,4,,Yerevan,Gyulikevkhyan Street,,Armenia,40.189362,44.568116,Yandex,,,,"['A18129', 'B6370']"
"հայկ գյուլիքևխյանի փողոց 29, երևան","29 Hayk Gyulikevkhyan Street, Yerevan",OK,Yerevan,Yerevan,29,,Yerevan,Gyulikevkhyan Street,,Armenia,40.188756,44.573937,Yandex,,,,['A8220']
"գուսան շերամ փողոց 57, երևան","57 Gusan Sheram Street, Yerevan",OK,Yerevan,Yerevan,57,,Yerevan,Gusan Sheram Street,,Armenia,40.179771,44.441696,Yandex,,,,['A1872']
"գրիբոյեդովի փողոց 60, երևան","60 Griboyedov Street, Yerevan",OK,Yerevan,Yerevan,60,,Yerevan,Griboyedov Street,,Armenia,40.211769,44.514478,Yandex,,,,['B2703']
"գրիբոյեդովի փողոց 44, երևան","44 Griboyedov Street, Yerevan",OK,Yerevan,Yerevan,44,,Yerevan,Griboyedov Street,,Armenia,40.209256,44.514388,Yandex,,,,['A2323']
"գրիբոյեդովի փողոց 21/6, երևան","21/6 Griboyedov Street, Yerevan",OK,Yerevan,Yerevan,21/6,,Yerevan,Griboyedov Street,,Armenia,40.213037,44.513301,Yandex,,,,['A16892']
"գրիբոյեդովի փողոց 21/4, երևան","21/4 Griboyedov Street, Yerevan",OK,Yerevan,Yerevan,21/4,,Yerevan,Griboyedov Street,,Armenia,40.21292,44.513633,Yandex,,,,['B2388']
"գայի պողոտա 19/67, երևան","19/67 Gay Avenue, Yerevan",OK,Yerevan,Yerevan,19/67,,,Gay Avenue,,Armenia,40.195314,44.569081,Azure,,,,['B3791']
"գարեգին նժդեհ փողոց 44, երևան","44 Garegin Nzhdeh Street, Yerevan",OK,Yerevan,Yerevan,44,,,Garegin Nzhdeh Street,,Armenia,40.151391,44.500185,Azure,,,,['A2757']
"գարեգին նժդեհ փողոց, վանաձոր","Garegin Nzhdeh Street, Vanadzor",OK,Lori,Yerevan,,,Vanadzor,Garegin Nzhdeh Street,,Armenia,40.807317,44.485193,Yandex,,1st Lane,,['B901']
"գարեգին նժդեհ փողոց 14, երևան","14 Garegin Nzhdeh Street, Yerevan",OK,Yerevan,Yerevan,14,,Yerevan,Garegin Nzhdeh Street,,Armenia,40.151267,44.489675,Yandex,,,,['A26169']
"garegin nzhdeh street, երևան","Garegin Nzhdeh Street, Yerevan",OK,Yerevan,Yerevan,,,Yerevan,Garegin Nzhdeh Street,,Armenia,40.152046,44.497006,Yandex,,,,['A2313']
"garegin nzhdeh street, vanadzor","Garegin Nzhdeh Street, Vanadzor",OK,Lori,Yerevan,,,Vanadzor,Garegin Nzhdeh Street,,Armenia,40.80759,44.486136,Yandex,,,,"['B970', 'B983', 'B984']"
"garegin nzhdeh street 2, vanadzor","Garegin Nzhdeh Street 2, Vanadzor",OK,Lori,Yerevan,2,,Vanadzor,Garegin Nzhdeh Street,,Armenia,40.812456,44.488534,Yandex,,,,['B1025']
"garegin nzhdeh street 11, vanadzor","Garegin Nzhdeh Street 11, Vanadzor",OK,Lori,Yerevan,11,,Vanadzor,Garegin Nzhdeh Street,,Armenia,40.809187,44.487322,Yandex,,,,"['A7595', 'B1049']"
"garegin nzhde street, yerevan","Garegin Nzhde Street, Yerevan",OK,Yerevan,Yerevan,,,Yerevan,Garegin Nzhdeh Street,,Armenia,40.152046,44.497006,Yandex,,,,['A2331']
"garegin nzhde street 28, yerevan","Garegin Nzhde Street 28, Yerevan",OK,Yerevan,Yerevan,28,,Yerevan,Garegin Nzhdeh Street,,Armenia,40.151653,44.494526,Yandex,,,,['A18829']
"գալշոյան փողոց, երևան","Galshoyan Street, Yerevan",OK,Yerevan,Yerevan,,,Yerevan,Galshoyan Street,,Armenia,40.182086,44.571152,Yandex,Nor Nork Block,,,['A2557']
"գալշոյան փողոց 35/1, երևան","Galshoyan Street 35/1, Yerevan",OK,Yerevan,Yerevan,35/1,,Yerevan,Galshoyan Street,,Armenia,40.182872,44.571521,Yandex,Nor Nork Block,,,['A13516']
"galshoyan street 1, yerevan","Galshoyan Street 1, Yerevan",OK,Yerevan,Yerevan,1,,Yerevan,Galshoyan Street,,Armenia,40.183527,44.572087,Yandex,,,,['A28628']
"улица галшоян, ереван","Galshoyan Street, Yerevan",OK,Yerevan,Yerevan,,,Yerevan,Galshoyan Street,,Armenia,40.177642,44.512519,Yandex,,,,['A1539']
"գայի պողոտա, երևան","Gay Avenue, Yerevan",OK,Yerevan,Yerevan,,,Yerevan,Gai Avenue,,Armenia,40.19969822,44.56666229,Nominatim,Nor Nork Block,,,"['A23183', 'A28188', 'A31394']"
"գայի պողոտա 8, երևան","8 Gay Avenue, Yerevan",OK,Yerevan,Yerevan,8/2,,Yerevan,Gai Avenue,,Armenia,40.1997761,44.56618509,Nominatim,Nor Nork Block,,,['A523']
"գայի պողոտա 32, երևան","32 Gay Avenue, Yerevan",OK,Yerevan,Yerevan,32,,Yerevan,Gai Avenue,,Armenia,40.19969822,44.56666229,Nominatim,Nor Nork Block,,,['A775']
"գայի պողոտա 23/2, երևան","23/2 Gay Avenue, Yerevan",OK,Yerevan,Yerevan,23/2,,Yerevan,Gai Avenue,,Armenia,40.197966,44.567999,Yandex,Nor Nork Block,,,['A13518']
"գայի պողոտա 19/30, երևան","19/30 Gay Avenue, Yerevan",OK,Yerevan,Yerevan,19/30,,Yerevan,Gai Avenue,,Armenia,40.196747,44.569311,Yandex,,,,['A18133']
"գայի պողոտա 16/10, երևան","16/10 Gay Avenue, Yerevan",OK,Yerevan,Yerevan,16/10,,Yerevan,Gai Avenue,,Armenia,40.196237,44.568341,Yandex,Nor Nork Block,,,['A18130']
"գայի պողոտա 15/1, երևան","15/1 Gay Avenue, Yerevan",OK,Yerevan,Yerevan,15/1,,Yerevan,Gai Avenue,,Armenia,40.200825,44.566733,Yandex,Nor Nork Block,,,['A13414']
"ձորագյուղ փողոց, երևան","Dzoragyugh Street, Yerevan",OK,Yerevan,Yerevan,,,Yerevan,Dzoragyugh Street,,Armenia,40.179213,44.500051,Yandex,,,,['A25719']
"ձորագյուղ փողոց 23, երևան","23 Dzoragyugh Street, Yerevan",OK,Yerevan,Yerevan,21/1,,Yerevan,Dzoragyugh Street,,Armenia,40.178566,44.499674,Yandex,,,,['A22272']
"դերենիկ դեմիրճյան փողոց, երևան","Derenik Demirchyan Street, Yerevan",OK,Yerevan,Yerevan,,,,Derenik Demirchyan Street,,Armenia,40.189559,44.507575,Azure,,,,"['A319', 'A28179', 'A31513']"
"դերենիկ դեմիրճյան փողոց 17/1, երևան","Derenik Demirchyan Street 17/1, Yerevan",OK,Yerevan,Yerevan,17/1,,,Derenik Demirchyan Street,,Armenia,40.187917,44.508375,Azure,,,,"['A13539', 'B7653']"
"դերենիկ դեմիրճյան փողոց 36, երևան","36 Derenik Demirchyan Street, Yerevan",OK,Yerevan,Yerevan,36,,Yerevan,Derenik Demirchyan Street,,Armenia,40.187922,44.507157,Yandex,,,,['A15490']
"դերենիկ դեմիրճյան փողոց 12/14, երևան","12/14 Derenik Demirchyan Street, Yerevan",OK,Yerevan,Yerevan,12/14,,Yerevan,Derenik Demirchyan Street,,Armenia,40.18921,44.507399,Yandex,,,,['A31349']
"կարապետ ուլնեցու փողոցի 2-րդ փակուղի, երևան","2nd Dead End Of Karapet Ulnetsi Street, Yerevan",OK,Yerevan,Yerevan,,,,Dead End Of Karapet Ulnetsi Street,,Armenia,40.208725,44.539544,Azure,,,2nd,['A27908']
"դավթաշենի 1-ին փողոցի 2-րդ նրբանցք 1/2, երևան","1/2 Davtashen 1st Street, 2nd Alley, Yerevan",OK,Yerevan,Yerevan,1/2,,,Davtashen Street,,Armenia,40.215828,44.47466,Azure,,,1st,['B2490']
"4-я улица давташена 26, ереван","4th Davtashen Street 26, Yerevan",OK,Yerevan,Yerevan,26,,Yerevan,Davtashen Street,,Armenia,40.212141,44.481016,Yandex,,,4th,['A1022']
"4-я улица давташена 13, ереван","4th Davtashen Street 13, Yerevan",OK,Yerevan,Yerevan,13,,Yerevan,Davtashen Street,,Armenia,40.213236,44.479569,Yandex,,,4th,"['A24207', 'B4266']"
"դավթաշենի 1-ին փողոցի 1-ին նրբանցք 24, երևան","24, Davtashen 1st Street, 1st Lane, Yerevan",OK,Yerevan,Yerevan,24,,Yerevan,Davtashen Street,,Armenia,40.217361,44.475922,Yandex,,1st Lane,1st,['A21699']
"դավթաշենի 1-ին զանգված, երևան","Davtashen 1st District, Yerevan",OK,Yerevan,Yerevan,,,Yerevan,Davtashen Street,,Armenia,40.216177,44.480432,Yandex,,,1st,"['A1689', 'A5779', 'A24883', 'A26919']"
"դավիթ մալյան փողոցի նրբանցք, երևան","Alley Of Davit Malyan Street, Yerevan",OK,Yerevan,Yerevan,,,Yerevan,Davit Malyan Street Lane,,Armenia,40.207045,44.566338,Yandex,,,,"['A1163', 'A19458']"
"davit malyan street lane 2, yerevan","Davit Malyan Street Lane 2, Yerevan",OK,Yerevan,Yerevan,2,,Yerevan,Davit Malyan Street Lane,,Armenia,40.206811,44.565215,Yandex,,,,['A18374']
"եղիշե չարենցի փողոց, երևան","Yeghishe Charents Street, Yerevan",OK,Yerevan,Yerevan,,,Yerevan,Charents Street,,Armenia,40.176347,44.527351,Yandex,,,,"['A3184', 'A5653']"
"եղիշե չարենցի փողոց 45, երևան","45 Yeghishe Charents Street, Yerevan",OK,Yerevan,Yerevan,45,,Yerevan,Charents Street,,Armenia,40.177987,44.527854,Yandex,,,,['A28926']
"եղիշե չարենցի փողոց 40, երևան","40 Yeghishe Charents Street, Yerevan",OK,Yerevan,Yerevan,40,,Yerevan,Charents Street,,Armenia,40.1784,44.527189,Yandex,,,,['A20871']
"բորյան փողոց, երևան","Boryan Street, Yerevan",OK,Yerevan,Yerevan,,1,Yerevan,Boryan Street,,Armenia,40.200343,44.559376,Yandex,Nor Nork Block,,,['A2335']
"bashinjaghyan street 2-nd lane 1, yerevan","Bashinjaghyan Street 2nd Lane 1, Yerevan",OK,Yerevan,Yerevan,1,,Yerevan,Bashinjaghyan Street,,Armenia,40.205213,44.46764,Yandex,,2nd Lane,,['A29135']
"բաշինջաղյան փողոցի 1-ին նրբանցք 22, երևան","22, 1st Alley, Bashinjaghyan Street, Yerevan",OK,Yerevan,Yerevan,22,,Yerevan,Bashinjaghyan Street,,Armenia,40.204655,44.4656,Yandex,,1st Lane,,['B4781']
"1-й переулок улицы башинджагяна, ереван","1st Lane Of Bashinjaghyan Street, Yerevan",OK,Yerevan,Yerevan,,,Yerevan,Bashinjaghyan Street,,Armenia,40.203353,44.465547,Yandex,,1st Lane,,['A18319']
"bashinjaghyan street 2-nd lane 6, yerevan","Bashinjaghyan Street 2nd Lane 6, Yerevan",OK,Yerevan,Yerevan,6,,Yerevan,Bashinjaghyan Street,,Armenia,40.201362,44.468179,Yandex,,,,['A21845']
"ակսել բակունցի փողոց, երևան","Aksel Bakuntsi Street, Yerevan",OK,Yerevan,Yerevan,,,Yerevan,Bakunts Street,,Armenia,40.190981,44.571557,Yandex,,,,"['A19461', 'A23489', 'A23639', 'A27996']"
"ակսել բակունցի փողոց 2, երևան","2 Aksel Bakuntsi Street, Yerevan",OK,Yerevan,Yerevan,2,,Yerevan,Bakunts Street,,Armenia,40.192214,44.572401,Yandex,,,,['A29665']
"ակսել բակունցի փողոց 11/11, երևան","11/11 Aksel Bakunts Street, Yerevan",OK,Yerevan,Yerevan,11/11,,Yerevan,Bakunts Street,,Armenia,40.190265,44.571161,Yandex,,,,['A296']
"ակսել բակունցի փողոց 11, երևան","11 Aksel Bakuntsi Street, Yerevan",OK,Yerevan,Yerevan,11,,Yerevan,Bakunts Street,,Armenia,40.189672,44.571395,Yandex,,,,['A1940']
"բագրևանդի փողոց 45/5, երևան","Bagrevand Street 45/5, Yerevan",OK,Yerevan,Yerevan,45/5,Bagrevand,Yerevan,Bagrevand Street,,Armenia,40.19942,44.580055,Yandex,,,,['B1872']
"bagrevand street 4/3, yerevan","Bagrevand Street 4/3, Yerevan",OK,Yerevan,Yerevan,4/3,Bagrevand,Yerevan,Bagrevand Street,,Armenia,40.2065241,44.5748886,Nominatim,,,,['A26880']
"բագրատունյաց փողոց 1, երևան","Bagratunyats Street 1, Yerevan",OK,Yerevan,Yerevan,1,,,Bagratunyats Street,,Armenia,40.148192,44.484792,Azure,,,,"['A31015', 'B3463']"
"nerqin shengavit 4-th street, երևան","Nerqin Shengavit 4th Street, Yerevan",OK,Yerevan,Yerevan,,,Yerevan,Bagratunyats Street,,Armenia,40.146931,44.486459,Yandex,,4th Lane,,['A28784']
"4-й переулок улицы багратуняц 38, ереван","4th Lane Of Bagratunyats Street 38, Yerevan",OK,Yerevan,Yerevan,38,,Yerevan,Bagratunyats Street,,Armenia,40.145724,44.487861,Yandex,,4th Lane,,['A2134']
"bagratunyats avenue 3rd lane, yerevan","Bagratunyats Avenue 3rd Lane, Yerevan",OK,Yerevan,Yerevan,,,Yerevan,Bagratunyats Street,,Armenia,40.148985,44.482767,Yandex,,3rd Lane,,['A6188']
"bagratunyats avenue 3rd lane, երևան","Bagratunyats Avenue 3rd Lane, Yerevan",OK,Yerevan,Yerevan,,,Yerevan,Bagratunyats Street,,Armenia,40.148985,44.482767,Yandex,,3rd Lane,,['A16202']
"բագրատունյաց փողոցի 3-րդ նրբանցք, երևան","3rd Alley Of Bagratunyats Street, Yerevan",OK,Yerevan,Yerevan,,,Yerevan,Bagratunyats Street,,Armenia,40.148985,44.482767,Yandex,,3rd Lane,,['A6286']
"улица багратуняц, ереван","Bagratunyats Street, Yerevan",OK,Yerevan,Yerevan,,,Yerevan,Bagratunyats Street,,Armenia,40.15188,44.482219,Yandex,,,,['A23064']
"բագրատունյաց փողոցի 3-րդ նրբանցք 8, երևան","8, Bagratunyats Street, 3rd Lane, Yerevan",OK,Yerevan,Yerevan,8,,Yerevan,Bagratunyats Street,,Armenia,40.153969,44.479138,Yandex,,,,['A28916']
"բագրատունյաց փողոցի 3-րդ նրբանցք 7, երևան","7, Bagratunyats Street, 3rd Lane, Yerevan",OK,Yerevan,Yerevan,7,,Yerevan,Bagratunyats Street,,Armenia,40.154514,44.479264,Yandex,,,,['A24079']
"բագրատունյաց փողոց 53, երևան","53 Bagratunyats Street, Yerevan",OK,Yerevan,Yerevan,53,,Yerevan,Bagratunyats Street,,Armenia,40.144422,44.493987,Yandex,,,,['A2268']
"բագրատունյաց փողոց 30ա, երևան","30a Bagratunyats Street, Yerevan",OK,Yerevan,Yerevan,30A,,Yerevan,Bagratunyats Street,,Armenia,40.14793,44.487142,Yandex,,,,['A26057']
"բագրատունյաց փողոց 20, երևան","20 Bagratunyats Street, Yerevan",OK,Yerevan,Yerevan,20,,Yerevan,Bagratunyats Street,,Armenia,40.150081,44.484303,Yandex,,,,['A30377']
"բագրատունյաց փողոց 17, երևան","17 Bagratunyats Street, Yerevan",OK,Yerevan,Yerevan,17,,Yerevan,Bagratunyats Street,,Armenia,40.151825,44.48363,Yandex,,,,['A28737']
"բագրատունյաց փողոց 12, երևան","12 Bagratunyats Street, Yerevan",OK,Yerevan,Yerevan,12,,Yerevan,Bagratunyats Street,,Armenia,40.152528,44.481025,Yandex,,,,['A21619']
"լյուքսեմբուրգի փողոց 1-ին նրբանցք, երևան","Luxembourg Street, 1st Lane, Yerevan",OK,Yerevan,Yerevan,,6,Yerevan,Bagratunyats Street,,Armenia,40.153459,44.475904,Yandex,Nor Nork Block,1st Lane,,['A20771']
"բաղյան փողոցի 1-ին նրբանցք 1, երևան","1st Alley, Baghyan Street, Yerevan",OK,Yerevan,Yerevan,1,,Yerevan,Baghyan Street,,Armenia,40.193819,44.567389,Yandex,,1st Lane,,['A25588']
"բաղյան փողոցի 1-ին նրբանցք 5, երևան","5, Baghyan Street, 1st Lane, Yerevan",OK,Yerevan,Yerevan,5,,Yerevan,Baghyan Street,,Armenia,40.194887,44.56693,Yandex,,,,['A13389']
"բաղյան փողոց 2-րդ նրբանցք 4, երևան","Baghyan Street 2nd Lane 4, Yerevan",OK,Yerevan,Yerevan,4,3,Yerevan,Baghyan Street,,Armenia,40.193241,44.564918,Yandex,Nor Nork Block,2nd Lane,,['A8239']
"բաղյան փողոց, երևան","Baghyan Street, Yerevan",OK,Yerevan,Yerevan,,3,Yerevan,Baghyan Street,,Armenia,40.195452,44.566284,Yandex,Nor Nork Block,,,"['A25035', 'A28627']"
"այգեստանի 10րդ փողոց 42/2, երևան","42/2 Aygestan 10th Street, Yerevan",OK,Yerevan,Yerevan,1,,Yerevan,Aygestan Street,,Armenia,40.222836,44.482794,Yandex,,,10th,['A20853']
"այգեստանի 10րդ փողոց, երևան","10th Aygestan Street, Yerevan",OK,Yerevan,Yerevan,1,,Yerevan,Aygestan Street,,Armenia,40.223008,44.482444,Yandex,,,,['A19802']
"ավետիք իսահակյանի փողոց 7, ծաղկաձոր","Avetik Isahakyan Street 7, Tsaghkadzor",OK,Yerevan,Yerevan,7,,,Avetik Isahakyan Street,,Armenia,40.1857104,44.5234145,Azure,,,,"['A7421', 'B649']"
"ավետիք իսահակյանի փողոց, գյումրի","Avetik Isahakyan Street, Gyumri",OK,Shirak,Yerevan,,,Gyumri,Avetik Isahakyan Street,,Armenia,40.797814,43.844936,Yandex,,,,['A7538']
"վառլամ ավանեսով փողոցի 3-րդ նրբանցք 5, երևան","5, 3rd Lane, Varlam Avanesov Street, Yerevan",OK,Yerevan,Yerevan,5,,Yerevan,Avanesov Street,,Armenia,40.129563,44.526021,Yandex,,3rd Lane,,['A5453']
"վառլամ ավանեսով փողոցի 2-րդ նրբանցք 8, երևան","8, 2nd Lane, Varlam Avanesov Street, Yerevan",OK,Yerevan,Yerevan,8,,Yerevan,Avanesov Street,,Armenia,40.130701,44.525033,Yandex,,2nd Lane,,['A904']
"ավանեսով փողոցի 2-րդ նրբանցք 8, երևան","8 Avanesov Street, 2nd Lane, Yerevan",OK,Yerevan,Yerevan,8,,Yerevan,Avanesov Street,,Armenia,40.130701,44.525033,Yandex,,2nd Lane,,['A1771']
"վառլամ ավանեսովի փողոց, երևան","Varlam Avanesov Street, Yerevan",OK,Yerevan,Yerevan,,,Yerevan,Avanesov Street,,Armenia,40.131549,44.528815,Yandex,,,,"['A586', 'A613', 'A1417']"
"varlam avanesov street, yerevan","Varlam Avanesov Street, Yerevan",OK,Yerevan,Yerevan,,,Yerevan,Avanesov Street,,Armenia,40.131549,44.528815,Yandex,,,,['A2873']
"վառլամ ավանեսովի փողոց 8/3, երևան","Varlam Avanesov Street 8/3, Yerevan",OK,Yerevan,Yerevan,8/3,,Yerevan,Avanesov Street,,Armenia,40.131853,44.525006,Yandex,,,,['A29215']
"varlam avanesov street 7/1, yerevan","Varlam Avanesov Street 7/1, Yerevan",OK,Yerevan,Yerevan,7/1,,Yerevan,Avanesov Street,,Armenia,40.129205,44.524853,Yandex,,,,['A10948']
"улица варлаама аванесова, ереван","Varlaam Avanesov Street, Yerevan",OK,Yerevan,Yerevan,,,Yerevan,Avanesov Street,,Armenia,40.131549,44.528815,Yandex,,,,['A27232']
"ավան 14-րդ փողոց, երևան","Avan 14th Street, Yerevan",OK,Yerevan,Yerevan,,,,Avan Street,,Armenia,40.215965,44.566022,Azure,,,14th,['A20437']
"avan 6-th street 1st lane, yerevan","Avan 6th Street 1st Lane, Yerevan",OK,Yerevan,Yerevan,,,Yerevan,Avan Street,,Armenia,40.213023,44.563274,Yandex,,1st Lane,6th,['A25949']
"avan 6-th street, yerevan","Avan 6th Street, Yerevan",OK,Yerevan,Yerevan,,,Yerevan,Avan Street,,Armenia,40.211549,44.565619,Yandex,,,6th,['A2848']
"avan 5-th street, yerevan","Avan 5th Street, Yerevan",OK,Yerevan,Yerevan,,,Yerevan,Avan Street,,Armenia,40.212596,44.565547,Yandex,,,5th,"['A21852', 'B2437']"
"avan 4-th street 2nd lane 29, yerevan","Avan 4th Street 2nd Lane 29, Yerevan",OK,Yerevan,Yerevan,29,,Yerevan,Avan Street,,Armenia,40.210578,44.56234,Yandex,,2nd Lane,4th,['A970']
"avan 4-th street 4th lane, yerevan","Avan 4th Street 4th Lane, Yerevan",OK,Yerevan,Yerevan,,,Yerevan,Avan Street,,Armenia,40.210592,44.563993,Yandex,,1st Lane,4th,['A28480']
"ավան 14-րդ փողոց 1, երևան","1 Avan 14th Street, Yerevan",OK,Yerevan,Yerevan,1,,Yerevan,Avan Street,,Armenia,40.215585,44.564918,Yandex,,,14th,['A18101']
"avan 12-th  street, yerevan","Avan 12th Street, Yerevan",OK,Yerevan,Yerevan,,,Yerevan,Avan Street,,Armenia,40.214531,44.566814,Yandex,,,12nd,"['A13502', 'A29537']"
"աթոյանի փողոց 13, երևան","13 Atoyan Street, Yerevan",OK,Yerevan,Yerevan,13,,,Atoyan Street,,Armenia,40.149329,44.518769,Azure,,,,['A21936']
"շոպրոնի 4-րդ նրբանցք, երևան","4th Alley Of Sopron, Yerevan",OK,Yerevan,Yerevan,,6,Yerevan,Artsakh Avenue,,Armenia,40.112447,44.499431,Yandex,Nor Nork Block,4th Lane,,"['A3594', 'A27944']"
"արտեմ միկոյան փողոց 17ա, երևան","17a Artem Mikoyan Street, Yerevan",OK,Yerevan,Yerevan,17a,,Yerevan,Artem Mikoyan Street,,Armenia,40.18170405,44.57696776,Nominatim,,,,['A3311']
"արտեմ միկոյան փողոց, երևան","Artem Mikoyan Street, Yerevan",OK,Yerevan,Yerevan,,5,Yerevan,Artem Mikoyan Street,,Armenia,40.18245411,44.56854234,Nominatim,Nor Nork Block,,,"['A750', 'A2591']"
"ներքին շենգավիթի 11-րդ փողոց, երևան","11th Street, Inner Shengavit, Yerevan",OK,Yerevan,Yerevan,,,,Armenia Street,,Armenia,40.137406,44.481209,Azure,,,11th,"['A22201', 'A30685']"
"forest street 3, yerevan","Forest Street 3, Yerevan",OK,Yerevan,Yerevan,3,,Yerevan,Armenia Street,,Armenia,40.089309,44.512187,Yandex,,,3rd,"['A9641', 'A10034']"
"davidashen 2-nd street, yerevan","Davidashen 2nd Street, Yerevan",OK,Yerevan,Yerevan,,,Yerevan,Armenia Street,,Armenia,40.226692,44.490017,Yandex,,,2nd,"['A259', 'A261', 'A9017', 'A10061', 'A13836', 'A24655', 'B3521']"
"արմենակ արմենակյանի փողոց 93/2, երևան","Armenak Armenakyan Street 93/2, Yerevan",OK,Yerevan,Yerevan,93/2,,,Armenak Armenakyan Street,,Armenia,40.187271,44.53073,Azure,,,,['A17404']
"արմենակ արմենակյանի փողոց, երևան","Armenak Armenakyan Street, Yerevan",OK,Yerevan,Yerevan,,,Yerevan,Armenak Armenakyan Street,,Armenia,40.186262,44.536289,Yandex,,,,['A1895']
"արմենակ արմենակյանի փողոց 1, երևան","1 Armenak Armenakyan Street, Yerevan",OK,Yerevan,Yerevan,1,,Yerevan,Armenak Armenakyan Street,,Armenia,40.19094,44.532597,Yandex,,,,['A9041']
"արմեն գուլակյան փողոց, երևան","Armen Gulakyan Street, Yerevan",OK,Yerevan,Yerevan,,,Yerevan,Armen Gulakyan Street,,Armenia,40.196947,44.501919,Yandex,,,,"['A21053', 'A31408']"
"улица армена гулакяна 2а, ереван","2a Armen Gulakyan Street, Yerevan",OK,Yerevan,Yerevan,2A,,Yerevan,Armen Gulakyan Street,,Armenia,40.196403,44.500554,Yandex,,,,"['A14430', 'A32105']"
"արամ մանուկյանի փողոց, երևան","Aram Manukyan Street, Yerevan",OK,Yerevan,Yerevan,,,Yerevan,Aram Manukyan Street,,Armenia,40.170303,44.453177,Yandex,,,,['A4289']
"արամ խաչատրյան փողոց 21ա, երևան","21a Aram Khachaturian Street, Yerevan",OK,Yerevan,Yerevan,21a,,,Aram Khachaturian Street,,Armenia,40.204886,44.497312,Azure,,,,['A14814']
"արամ խաչատրյան փողոց 16, երևան","16 Aram Khachaturian Street, Yerevan",OK,Yerevan,Yerevan,16,,,Aram Khachaturian Street,,Armenia,40.205026,44.498149,Azure,,,,['A805']
"արամ խաչատրյան փողոց 13, երևան","13 Aram Khachaturian Street, Yerevan",OK,Yerevan,Yerevan,13,,,Aram Khachaturian Street,,Armenia,40.204727,44.49626,Azure,,,,['A24056']
"արամ խաչատրյան փողոցի նրբանցք 4, երևան","Aram Khachatryan Street Alley 4, Yerevan",OK,Yerevan,Yerevan,4,,Yerevan,Aram Khachatryan Street Alley,,Armenia,40.16519,44.436684,Yandex,,,,['A26379']
"արամ խաչատրյան փողոցի նրբանցք 2, երևան","Aram Khachatryan Street Alley 2, Yerevan",OK,Yerevan,Yerevan,2,,,Aram Khachatryan Street Alley,,Armenia,40.208059,44.506226,Azure,,,,['A3988']
"դավթաշեն 1ին փողոց 1ին նրբանցք, երևան","Davtashen 1st Street 1st Lane, Yerevan",OK,Yerevan,Yerevan,,,Yerevan,Aram Khachatryan Street,,Armenia,40.207575,44.506896,Yandex,,1st Lane,,['A28960']
"արամ խաչատրյան փողոց 6, երևան","Aram Khachatryan Street 6, Yerevan",OK,Yerevan,Yerevan,6,,Yerevan,Aram Khachatryan Street,,Armenia,40.202802,44.492748,Yandex,,,,['A26148']
"արամ խաչատրյան փողոց 31, երևան","31 Aram Khachaturian Street, Yerevan",OK,Yerevan,Yerevan,31,,Yerevan,Aram Khachatryan Street,,Armenia,40.208112,44.504605,Yandex,,,,['B2673']
"արամ խաչատրյան փողոց 3, երևան","3 Aram Khachaturian Street, Yerevan",OK,Yerevan,Yerevan,3,,Yerevan,Aram Khachatryan Street,,Armenia,40.203208,44.491867,Yandex,,,,['A24393']
"aram khachatryan street 11, երևան","Aram Khachatryan Street 11, Yerevan",OK,Yerevan,Yerevan,11,,Yerevan,Aram Khachatryan Street,,Armenia,40.204379,44.495389,Yandex,,,,['A24160']
"կուրղինյան փողոցի նրբանցք, երևան","Alley Of Kurghinyan Street, Yerevan",OK,Yerevan,Yerevan,,,,Alley Of Kurghinyan Street,,Armenia,40.169782,44.467103,Azure,,,,['A4604']
"արաբկիրի 49-րդ փողոց 49/36, երևան","49/36 Arabkir 49th Street, Yerevan",OK,Yerevan,Yerevan,49/36,,Yerevan,Alexey Ekimyan Street,,Armenia,40.201342,44.518871,Yandex,,,,['A31270']
"ակսել բակունց փողոց 1, երևան","1 Aksel Bakunts Street, Yerevan",OK,Yerevan,Yerevan,1,,,Aksel Bakunts Street,,Armenia,40.192127,44.573237,Azure,,,,"['A1807', 'A13499', 'B6375']"
"aksel bakunc 1-st lane, yerevan","Aksel Bakunc 1st Lane, Yerevan",OK,Yerevan,Yerevan,1,,Yerevan,Aksel Bakunts Street,,Armenia,40.189796,44.572302,Yandex,,2nd Lane,,"['A3064', 'A4392', 'A20469']"
"ծովակալ իսակովի պողոտա 44/5, երևան","Admiral Isakov Avenue 44/5, Yerevan",OK,Yerevan,Yerevan,44/5,,,Admiral Isakov Avenue,,Armenia,40.172942,44.4932282,Azure,,,,['A2456']
"ծովակալ իսակովի պողոտա 44, երևան","Admiral Isakov Avenue 44, Yerevan",OK,Yerevan,Yerevan,44,,,Admiral Isakov Avenue,,Armenia,40.172942,44.4932282,Azure,,,,['A28894']
"ծովակալ իսակովի պողոտա 38, երևան","Admiral Isakov Avenue 38, Yerevan",OK,Yerevan,Yerevan,38,,,Admiral Isakov Avenue,,Armenia,40.172942,44.4932282,Azure,,,,['A847']
"վերին շենգավիթ 2րդ փողոց, երևան","Upper Shengavit 2nd Street, Yerevan",OK,Yerevan,Yerevan,2,,Yerevan,A. Popov Street,,Armenia,40.148537,44.464603,Yandex,,,,"['A5505', 'A24356', 'A29663']"
"սիլիկյան թաղամաս 10֊րդ փողոց, երևան","Silikyan District, 10th Street, Yerevan",OK,Yerevan,Yerevan,,Silikyan District,Yerevan,,,Armenia,40.210746,44.442911,Azure,,,,['A23378']
"իսահակյան թաղամաս 5/5, երևան","Isahakyan District 5/5, Yerevan",OK,Yerevan,Yerevan,5/5,Isahakyan District,Yerevan,,,Armenia,40.21772,44.578105,Yandex,,,,['A9101']
"դավթաշենի 2-րդ զանգված, երևան","Davtashen 2nd District, Yerevan",OK,Yerevan,Yerevan,,2nd Residential Area,Yerevan,,,Armenia,40.201769,44.573452,Yandex,,,,"['A3547', 'A20458', 'A23218', 'A23989']"
"նոր արեշ 2-րդ փողոց 16/1, երևան","16/1, New Aresh 2nd Street, Yerevan",OK,Yerevan,Yerevan,16/1,,,,,Armenia,40.149623,44.516748,Azure,,,,['A1292']
"ներքին շենգավիթի 11-րդ փողոց 39, երևան","39, Nerkin Shengavit 11th Street, Yerevan",OK,Yerevan,Yerevan,39,,,,,Armenia,40.137406,44.481209,Azure,,,,['A29330']
"կարապետ ուլնեցու փողոցի 3-րդ փակուղի 5, երևան","5, Karapet Ulnetsi Street, 3rd Dead End, Yerevan",OK,Yerevan,Yerevan,5,,,,,Armenia,40.209437,44.539289,Azure,,,,['A9639']
"արգիշտի, երևան","Argishti, Yerevan",OK,Yerevan,Yerevan,,Argishti,Yerevan,,,Armenia,40.151522,44.52524,Yandex,,,,"['A2413', 'A5978', 'A20684', 'A22280']"
"shahumyan street, yeghegnadzor","Shahumyan Street, Yeghegnadzor",OK,Vayots Dzor,Yeghegnadzor,,,Yeghegnadzor,Shahumyan Street,,Armenia,39.76040185,45.32811295,Nominatim,,,,['B1861']
"momik st 6, yeghegnadzor","Momik Street 6, Yeghegnadzor",OK,Vayots Dzor,Yeghegnadzor,6,,Yeghegnadzor,Momik Street,,Armenia,39.7595594,45.3338483,Nominatim,,,,['B1820']
vayots dzor › yeghegnadzor,Vayots Dzor › Yeghegnadzor,OK,Vayots Dzor,Yeghegnadzor,,,,,,Armenia,39.765921,45.334268,Azure,,,,['B1844']
ararat › vedi,Ararat › Vedi,OK,Ararat,Vedi,,,Vedi,,,Armenia,39.9138481,44.7224953,Nominatim,,,,['B82']
"andranik zoravar st,","Andranik Zoravar Street,",OK,Gegharkunik,Vardenis,,,Vardenis,Zoravar Andranik Street,,Armenia,40.17849389,45.73650739,Nominatim,,,,"['A15882', 'A17266', 'A29199']"
"1-ին փողոց, գեղաքար","1st Street, Geghakar",OK,Gegharkunik,Vardenis,,,,Armenia Street,Geghakar,Armenia,40.11945338,45.6824007,Nominatim,,,1st,['B75']
"ա. սեսմանուկյան փողոց 7, վարդենիս","A. Sesmanukyan Street 7, Vardenis",OK,Gegharkunik,Vardenis,7,,Vardenis,A. Sesmanukyan Street,,Armenia,40.18753591,45.74323714,Nominatim,,,,['B354']
"ա. սեսմանուկյան փողոց 10, վարդենիս","A. Sesmanukyan Street 10, Vardenis",OK,Gegharkunik,Vardenis,11,,Vardenis,A. Sesmanukyan Street,,Armenia,40.187226,45.744748,Yandex,,,,['A7602']
"ա․ սեսմանուկյան փողոց 1-ին նրբանցք 14, վարդենիս","A. Sesmanukyan Street, 1st Lane, 14, Vardenis",OK,Gegharkunik,Vardenis,14,,Vardenis,A. Sesmanukyan Street,,Armenia,40.186103,45.746814,Yandex,,1st Lane,,['B370']
gegharkunik › vardenis,Gegharkunik › Vardenis,OK,Gegharkunik,Vardenis,,,Vardenis,,,Armenia,40.184574,45.7269788,Nominatim,,,,"['B335', 'B343', 'B348']"
"zaqaryan street, vanadzor","Zaqaryan Street, Vanadzor",OK,Lori,Vanadzor,,,Vanadzor,Zaqaryan Street,,Armenia,40.80079324,44.4933792,Nominatim,,,,"['B1003', 'B1006']"
"yubeka street 2, vanadzor","Yubeka Street 2, Vanadzor",OK,Lori,Vanadzor,2,,Vanadzor,Yubeka Street,,Armenia,40.7959893,44.52288978,Nominatim,,,,"['B899', 'B937']"
"vardanants street, vanadzor","Vardanants Street, Vanadzor",OK,Lori,Vanadzor,,,Vanadzor,Vardanants Street,,Armenia,40.81502229,44.4704468,Nominatim,,,,"['A7563', 'A7569', 'A7599', 'A25208', 'B900', 'B923', 'B926', 'B936']"
"vardanants street 51, vanadzor","Vardanants Street 51, Vanadzor",OK,Lori,Vanadzor,51,,Vanadzor,Vardanants Street,,Armenia,40.8049829,44.4967128,Nominatim,,,,"['A7571', 'B995']"
"vardanants street 122, vanadzor","Vardanants Street 122, Vanadzor",OK,Lori,Vanadzor,122,,Vanadzor,Vardanants Street,,Armenia,40.80431125,44.49636747,Nominatim,,,,['B938']
"լոռու խճուղի, վանաձոր","Lori Highway, Vanadzor",OK,Lori,Vanadzor,,,Vanadzor,Vanadzor-dilijan Highway,,Armenia,40.7806708,44.5505821,Nominatim,,,,['B919']
"ուսանողական փողոց, վանաձոր","Student Street, Vanadzor",OK,Lori,Vanadzor,,Dimats,Vanadzor,Usanoghakan Street,,Armenia,40.798763,44.519517,Yandex,,,,['B1045']
"usanogakan street, vanadzor","Usanogakan Street, Vanadzor",OK,Lori,Vanadzor,,Dimats,Vanadzor,Usanogakan Street,,Armenia,40.79749307,44.51887685,Nominatim,,,,['B1020']
"tumanyan street, vanadzor","Tumanyan Street, Vanadzor",OK,Lori,Vanadzor,,,Vanadzor,Tumanyan Street,,Armenia,40.80730433,44.49732989,Nominatim,,,,['A7568']
"tumanyan street 4, vanadzor","Tumanyan Street 4, Vanadzor",OK,Lori,Vanadzor,4,,Vanadzor,Tumanyan Street,,Armenia,40.8059978,44.49766105,Nominatim,,,,['B909']
"տպագրիչների փողոց 9, վանաձոր","9 Tpagrichneri Street, Vanadzor",OK,Lori,Vanadzor,9,,Vanadzor,Tpagrichner Street,,Armenia,40.805672,44.487672,Yandex,,,,['B1091']
"tigranyan street, vanadzor","Tigranyan Street, Vanadzor",OK,Lori,Vanadzor,,,Vanadzor,Tigranyan Street,,Armenia,40.81007906,44.46894114,Nominatim,,,,['B1061']
"tigran mets avenue, vanadzor","Tigran Mets Avenue, Vanadzor",OK,Lori,Vanadzor,,,Vanadzor,Tigran Mets Avenue,,Armenia,40.8076548,44.4961571,Nominatim,,,,"['B902', 'B903', 'B910', 'B913', 'B914', 'B922', 'B943', 'B992', 'B1087']"
"tigran mets avenue 75, vanadzor","Tigran Mets Avenue 75, Vanadzor",OK,Lori,Vanadzor,75,,Vanadzor,Tigran Mets Avenue,,Armenia,40.8087242,44.49360086,Nominatim,,,,['B957']
"tigran mets avenue 73, vanadzor","Tigran Mets Avenue 73, Vanadzor",OK,Lori,Vanadzor,73,,Vanadzor,Tigran Mets Avenue,,Armenia,40.80898885,44.492795,Nominatim,,,,['A7567']
"tigran mets avenue 59, vanadzor","Tigran Mets Avenue 59, Vanadzor",OK,Lori,Vanadzor,59,,Vanadzor,Tigran Mets Avenue,,Armenia,40.8104393,44.48873157,Nominatim,,,,['B1034']
"tigran mets avenue 56, vanadzor","Tigran Mets Avenue 56, Vanadzor",OK,Lori,Vanadzor,56,,Vanadzor,Tigran Mets Avenue,,Armenia,40.8062591,44.49631675,Nominatim,,,,['B897']
"tigran mets avenue 50, vanadzor","Tigran Mets Avenue 50, Vanadzor",OK,Lori,Vanadzor,50,,Vanadzor,Tigran Mets Avenue,,Armenia,40.8074639,44.4960694,Nominatim,,,,['B1031']
"tigran mets avenue 38, vanadzor","Tigran Mets Avenue 38, Vanadzor",OK,Lori,Vanadzor,38,,Vanadzor,Tigran Mets Avenue,,Armenia,40.80862915,44.49167539,Nominatim,,,,['B994']
"tigran mets avenue 34, vanadzor","Tigran Mets Avenue 34, Vanadzor",OK,Lori,Vanadzor,34,,Vanadzor,Tigran Mets Avenue,,Armenia,40.80902765,44.48935597,Nominatim,,,,"['B1047', 'B1060']"
"տիգրան մեծի պողոտա 20/1ա, վանաձոր","Tigran Mets Avenue 20/1a, Vanadzor",OK,Lori,Vanadzor,20/1,,Vanadzor,Tigran Mets Avenue,,Armenia,40.811118,44.484223,Yandex,,,,['B960']
"tigran mets ave 27, vanadzor","Tigran Mets Avenue 27, Vanadzor",OK,Lori,Vanadzor,27,,Vanadzor,Tigran Mets Avenue,,Armenia,40.81238045,44.48223325,Nominatim,,,,['B1016']
"տավրոսի 1-ին փողոց 63, վանաձոր","63 Tavros 1st Street, Vanadzor",OK,Lori,Vanadzor,63,,Vanadzor,Tavros Street,,Armenia,40.838312,44.454425,Yandex,,,1st,['B980']
"տավրոսի 1-ին փողոց, վանաձոր","1st Tavros Street, Vanadzor",OK,Lori,Vanadzor,,,Vanadzor,Tavros Street,,Armenia,40.832533,44.452566,Yandex,,,1st,['B1070']
"tavros 4-th street 1st lane, vanadzor","Tavros 4th Street 1st Lane, Vanadzor",OK,Lori,Vanadzor,,,Vanadzor,Tavros Street,,Armenia,40.832662,44.446017,Yandex,,1st Deadlock,4th,['B1011']
"улица татеракан, ванадзор","Taterakan Street, Vanadzor",OK,Lori,Vanadzor,,,Vanadzor,Taterakan Street,,Armenia,40.809521,44.494032,Yandex,,,,['B1023']
"taterakan street 2, vanadzor","Taterakan Street 2, Vanadzor",OK,Lori,Vanadzor,2,,Vanadzor,Taterakan Street,,Armenia,40.8098659,44.493621,Nominatim,,,,['B1054']
"улица татеракан 1/1, ванадзор","Taterakan Street 1/1, Vanadzor",OK,Lori,Vanadzor,1/1,,Vanadzor,Taterakan Street,,Armenia,40.810443,44.494176,Yandex,,,,['B942']
"sukhumi street 14, vanadzor","Sukhumi Street 14, Vanadzor",OK,Lori,Vanadzor,14,Bazum,Vanadzor,Sukhumi Street,,Armenia,40.7965275,44.52909661,Nominatim,,,,['B1035']
"stepan zoryan street 79/1, vanadzor","Stepan Zoryan Street 79/1, Vanadzor",OK,Lori,Vanadzor,79/1,,Vanadzor,Stepan Zoryan Street,,Armenia,40.80775,44.48660613,Nominatim,,,,['B1004']
"stepan zoryan street 21, vanadzor","Stepan Zoryan Street 21, Vanadzor",OK,Lori,Vanadzor,21,,Vanadzor,Stepan Zoryan Street,,Armenia,40.80964435,44.48083216,Nominatim,,,,['B1055']
"shinararneri street, vanadzor","Shinararneri Street, Vanadzor",OK,Lori,Vanadzor,,Dimats,Vanadzor,Shinararneri Street,,Armenia,40.79846759,44.52215044,Nominatim,,,,['B968']
"shinararneri street 7, vanadzor","Shinararneri Street 7, Vanadzor",OK,Lori,Vanadzor,7,Dimats,Vanadzor,Shinararneri Street,,Armenia,40.79931815,44.52075045,Nominatim,,,,['B1024']
"shinararneri street 1, vanadzor","Shinararneri Street 1, Vanadzor",OK,Lori,Vanadzor,1,Dimats,Vanadzor,Shinararneri Street,,Armenia,40.8002661,44.5163591,Nominatim,,,,['B1008']
"sankt peterburg street, vanadzor","Sankt Peterburg Street, Vanadzor",OK,Lori,Vanadzor,,Bazum,Vanadzor,Sankt Peterburg Street,,Armenia,40.78943226,44.52826285,Nominatim,,,,['B1083']
"nersisyan lane, vanadzor","Nersisyan Lane, Vanadzor",OK,Lori,Vanadzor,,Dimats,Vanadzor,Nersisyan Lane,,Armenia,40.79722537,44.514674,Nominatim,,,,['B1051']
"narekaci street, vanadzor","Narekaci Street, Vanadzor",OK,Lori,Vanadzor,,,Vanadzor,Narekatsi Street,,Armenia,40.82871017,44.45501813,Nominatim,,,,"['B1059', 'B1065']"
"narekaci street 21, vanadzor","Narekaci Street 21, Vanadzor",OK,Lori,Vanadzor,21,,Vanadzor,Narekatsi Street,,Armenia,40.8243067,44.47339733,Nominatim,,,,['B976']
"nairi street 5, vanadzor","Nairi Street 5, Vanadzor",OK,Lori,Vanadzor,5,Lager,Vanadzor,Nairi Street,,Armenia,40.7931769,44.50850292,Nominatim,,,,"['B1018', 'B1095']"
"մյասնիկյան փողոց 2-րդ նրբանցք 10, ստեփանավան","Myasnikyan Street 2nd Lane 10, Stepanavan",OK,Lori,Vanadzor,10,,Stepanavan,Myasnikyan Street,,Armenia,41.004958,44.376173,Yandex,,2nd Lane,,['B911']
"myasnikyan street, vanadzor","Myasnikyan Street, Vanadzor",OK,Lori,Vanadzor,,,Vanadzor,Myasnikyan Street,,Armenia,40.80268858,44.4877647,Nominatim,,,,"['B927', 'B958']"
"myasnikyan street 12, vanadzor","Myasnikyan Street 12, Vanadzor",OK,Lori,Vanadzor,12,,Vanadzor,Myasnikyan Street,,Armenia,40.8074254,44.4909947,Nominatim,,,,"['B1029', 'B1030']"
"moskovyan street, vanadzor","Moskovyan Street, Vanadzor",OK,Lori,Vanadzor,,,Vanadzor,Moskovyan Street,,Armenia,40.81421553,44.49094829,Nominatim,,,,"['B977', 'B985', 'B1001', 'B1050', 'B1080']"
"moskovyan street 68, vanadzor","Moskovyan Street 68, Vanadzor",OK,Lori,Vanadzor,68,,Vanadzor,Moskovyan Street,,Armenia,40.81303665,44.4949419,Nominatim,,,,['B1013']
"moskovyan street 64, vanadzor","Moskovyan Street 64, Vanadzor",OK,Lori,Vanadzor,64,,Vanadzor,Moskovyan Street,,Armenia,40.8132489,44.49429049,Nominatim,,,,['B1076']
"moskovyan street 54, vanadzor","Moskovyan Street 54, Vanadzor",OK,Lori,Vanadzor,54,,Vanadzor,Moskovyan Street,,Armenia,40.8138016,44.4909427,Nominatim,,,,['B973']
"moskovyan street 52/2, vanadzor","Moskovyan Street 52/2, Vanadzor",OK,Lori,Vanadzor,52/2,,Vanadzor,Moskovyan Street,,Armenia,40.81354655,44.4900404,Nominatim,,,,['B989']
"moskovyan street 5, vanadzor","Moskovyan Street 5, Vanadzor",OK,Lori,Vanadzor,5,,Vanadzor,Moskovyan Street,,Armenia,40.81709395,44.48175764,Nominatim,,,,['A7594']
"մխիթար գոշ փողոց 7, վանաձոր","7 Mkhitar Gosh Street, Vanadzor",OK,Lori,Vanadzor,7,,Vanadzor,Mkhitar Gosh Street,,Armenia,40.810099,44.4909279,Nominatim,,,,['A7581']
"մյասնիկյան փողոց 7/25, վանաձոր","7/25 Myasnikyan Street, Vanadzor",OK,Lori,Vanadzor,7,,Vanadzor,Miasnikyan Street,,Armenia,40.809897,44.49299,Yandex,,,,['B990']
"մարշալ բաղրամյան պողոտա гск 7/12, վանաձոր","Marshal Baghramyan Avenue Gsk 7/12, Vanadzor",OK,Lori,Vanadzor,7/12А,,Vanadzor,Marshal Baghramyan Avenue,,Armenia,40.844595,44.427862,Yandex,,,,['B932']
"lazyan street, vanadzor","Lazyan Street, Vanadzor",OK,Lori,Vanadzor,,,Vanadzor,Lazyan Street,,Armenia,40.81351373,44.48150314,Nominatim,,,,['B1014']
"lazyan street 18, vanadzor","Lazyan Street 18, Vanadzor",OK,Lori,Vanadzor,18,,Vanadzor,Lazyan Street,,Armenia,40.81339145,44.48129669,Nominatim,,,,['B940']
"улица лазян 25, ванадзор","Lazyan Street 25, Vanadzor",OK,Lori,Vanadzor,25,,Vanadzor,Lazyan Street,,Armenia,40.813084,44.483315,Yandex,,,,['B1037']
"knunyants street 48, vanadzor","Knunyants Street 48, Vanadzor",OK,Lori,Vanadzor,48,Dimats,Vanadzor,Knunyants Street,,Armenia,40.8029731,44.51258024,Nominatim,,,,['B1038']
"knunyants street 2, vanadzor","Knunyants Street 2, Vanadzor",OK,Lori,Vanadzor,2,Dimats,Vanadzor,Knunyants Street,,Armenia,40.80359085,44.5034066,Nominatim,,,,"['B933', 'B981']"
"կարեն դեմիրճյան 1-ին նրբանցք 12, վանաձոր","Karen Demirchyan 1st Alley 12, Vanadzor",OK,Lori,Vanadzor,10,,Vanadzor,Karen Demirchyan Street,,Armenia,40.815295,44.475185,Yandex,,1st Lane,,['B978']
"улица карена демирчяна, ванадзор","Karena Demirchyan Street, Vanadzor",OK,Lori,Vanadzor,,,Vanadzor,Karen Demirchyan Street,,Armenia,40.81491875,44.48278525,Nominatim,,,,['B1041']
"կարեն դեմիրճյան փողոց, վանաձոր","Karen Demirchyan Street, Vanadzor",OK,Lori,Vanadzor,,,Vanadzor,Karen Demirchyan Street,,Armenia,40.81491875,44.48278525,Nominatim,,,,['A7583']
"karen demirchyan street, vanadzor","Karen Demirchyan Street, Vanadzor",OK,Lori,Vanadzor,,,Vanadzor,Karen Demirchyan Street,,Armenia,40.81491875,44.48278525,Nominatim,,,,['B1093']
"կարեն դեմիրճյան փողոց 7, վանաձոր","Karen Demirchyan Street 7, Vanadzor",OK,Lori,Vanadzor,7,,Vanadzor,Karen Demirchyan Street,,Armenia,40.817309,44.476551,Yandex,,,,['B1032']
"կարեն դեմիրճյան փողոց 16, վանաձոր","16 Karen Demirchyan Street, Vanadzor",OK,Lori,Vanadzor,16,,Vanadzor,Karen Demirchyan Street,,Armenia,40.815323,44.48089,Yandex,,,,['B1072']
"isahakyan street 17, vanadzor","Isahakyan Street 17, Vanadzor",OK,Lori,Vanadzor,17,Dimats,Vanadzor,Isahakyan Street,,Armenia,40.7979018,44.51592555,Nominatim,,,,['B998']
"гск-4 17, ванадзор","Gsk-4 17, Vanadzor",OK,Lori,Vanadzor,17,Gsk-4,Vanadzor,Gsk-,,Armenia,40.84205,44.43142,Yandex,,,,['B1094']
"grigor lusavorich street, vanadzor","Grigor Lusavorich Street, Vanadzor",OK,Lori,Vanadzor,,,Vanadzor,Grigor Lusavorich Street,,Armenia,40.81252716,44.48957436,Nominatim,,,,"['A7597', 'B969', 'B1005', 'B1036', 'B1075', 'B1079']"
"գրիգոր լուսավորչի փողոց 39/1, վանաձոր","Grigor Lusavorich Street 39/1, Vanadzor",OK,Lori,Vanadzor,39/1,,Vanadzor,Grigor Lusavorich Street,,Armenia,40.813193,44.490672,Yandex,,,,['B1015']
"grigor lusavorich street 31, vanadzor","Grigor Lusavorich Street 31, Vanadzor",OK,Lori,Vanadzor,31,,Vanadzor,Grigor Lusavorich Street,,Armenia,40.813634,44.48832156,Nominatim,,,,['B962']
"ղազարոս աղայանի փողոց, վանաձոր","Ghazaros Aghayan Street, Vanadzor",OK,Lori,Vanadzor,,,Vanadzor,Ghazaros Aghayan Street,,Armenia,40.804477,44.512088,Yandex,,,,"['B999', 'B1084']"
"улица газароса агаяна 83, ванадзор","Ghazaros Aghayan Street 83, Vanadzor",OK,Lori,Vanadzor,83,,Vanadzor,Ghazaros Aghayan Street,,Armenia,40.80234,44.52197,Yandex,,,,['B1081']
"գարեգին նժդեհի փողոց 9/2-1 , վանաձոր","Garegin Nzhdeh Street 9/2-1, Vanadzor",OK,Lori,Vanadzor,9/2-1,,Vanadzor,Garegin Nzhdeh Street,,Armenia,40.809549,44.487501,Yandex,,,,['B951']
"chukhajyan street, vanadzor","Chukhajyan Street, Vanadzor",OK,Lori,Vanadzor,,Lager,Vanadzor,Chukhajyan Street,,Armenia,40.79304442,44.52085231,Nominatim,,,,"['B997', 'B1000']"
"chukhajyan street 8, vanadzor","Chukhajyan Street 8, Vanadzor",OK,Lori,Vanadzor,8,Lager,Vanadzor,Chukhajyan Street,,Armenia,40.79167575,44.52361239,Nominatim,,,,['A7587']
"chukhajyan street 58, vanadzor","Chukhajyan Street 58, Vanadzor",OK,Lori,Vanadzor,58,Lager,Vanadzor,Chukhajyan Street,,Armenia,40.7879902,44.52891184,Nominatim,,,,['B1057']
"улица чухаджяна 56, ванадзор","Chukhajyan Street 56, Vanadzor",OK,Lori,Vanadzor,56,,Vanadzor,Chukhajyan Street,,Armenia,40.78814,44.52886,Yandex,,,,['B1074']
"batumi street 5, vanadzor","Batumi Street 5, Vanadzor",OK,Lori,Vanadzor,5,,Vanadzor,Batumi Street,,Armenia,40.81345985,44.48076323,Nominatim,,,,['B1068']
"batumi street 15, vanadzor","Batumi Street 15, Vanadzor",OK,Lori,Vanadzor,15,,Vanadzor,Batumi Street,,Armenia,40.8087236,44.47834594,Nominatim,,,,['B1067']
"baghramyan avenue, vanadzor","Baghramyan Avenue, Vanadzor",OK,Lori,Vanadzor,,,Vanadzor,Baghramyan Avenue,,Armenia,40.84076414,44.43081111,Nominatim,,,,['B1053']
"թումանյան փողոց 6ա, վանաձոր","6a Tumanyan Street, Vanadzor",OK,Lori,Vanadzor,8/23,,Tumanyan,Armenia Street,,Armenia,41.00214,44.648273,Yandex,,,2nd,['B1019']
"ամիրյան փողոց 5, վանաձոր","5 Amiryan Street, Vanadzor",OK,Lori,Vanadzor,5,Lager,Vanadzor,Amiryan Street,,Armenia,40.790093,44.516894,Yandex,,,,['B908']
"agayan street, vanadzor","Agayan Street, Vanadzor",OK,Lori,Vanadzor,,Dimats,Vanadzor,Aghayan Street,,Armenia,40.80233788,44.52045141,Nominatim,,,,"['B1009', 'B1033', 'B1048']"
"agayan street 83, vanadzor","Agayan Street 83, Vanadzor",OK,Lori,Vanadzor,83,Dimats,Vanadzor,Aghayan Street,,Armenia,40.8023477,44.5219424,Nominatim,,,,['B1089']
"տարոն-2 թաղամաս 10-1 , վանաձոր","Taron-2nd District 10-1, Vanadzor",OK,Lori,Vanadzor,10-1,Taron-2nd District,Vanadzor,,,Armenia,40.841743,44.434609,Yandex,,,,['B988']
"տարոն-2 թաղամաս 10-1, վանաձոր","Taron-2nd District 10-1, Vanadzor",OK,Lori,Vanadzor,10-1,Taron-2nd District,Vanadzor,,,Armenia,40.841743,44.434609,Yandex,,,,"['B1012', 'B1022', 'B1086']"
"ներսիսյան թաղամաս 15, վանաձոր","Nersisyan District 15, Vanadzor",OK,Lori,Vanadzor,15,Nersisyan Quarter,Vanadzor,,,Armenia,40.799412,44.510471,Yandex,,,,['B961']
"квартал нерсисян 11, ванадзор","Nersisyan Quarter 11, Vanadzor",OK,Lori,Vanadzor,11,Nersisyan Quarter,Vanadzor,,,Armenia,40.798374,44.511819,Yandex,,,,['B1058']
"meqenashinararneri district, vanadzor","Meqenashinararneri District, Vanadzor",OK,Lori,Vanadzor,,Meqenashinararneri,Vanadzor,,,Armenia,40.83682211,44.44735771,Nominatim,,,,['B1010']
"мекенашинарарнери 26, ванадзор","Mekenashinarreri 26, Vanadzor",OK,Lori,Vanadzor,26,Mekenashinararneri,Vanadzor,,,Armenia,40.83853,44.446745,Yandex,,,,['A7586']
"տարոն-4 թաղամաս, վանաձոր","Taron-4th District, Vanadzor",OK,Lori,Vanadzor,,Kvartal Taron-4,Vanadzor,,,Armenia,40.838155,44.453698,Yandex,,,,"['B1073', 'B1085']"
lorri › vanadzor,Lorri › Vanadzor,OK,Lori,Vanadzor,,,,,,Armenia,40.820181,44.485536,Azure,,,,"['A7570', 'A7574', 'A7576', 'A7578', 'A7579', 'A7580', 'A7585', 'A7588', 'A7592', 'A7593', 'A7596', 'A7598', 'B904', 'B905', 'B906', 'B907', 'B915', 'B920', 'B925', 'B931', 'B934', 'B935', 'B945', 'B948', 'B949', 'B950', 'B952', 'B953', 'B954', 'B955', 'B959', 'B971', 'B986', 'B993', 'B996', 'B1002', 'B1021', 'B1026', 'B1027', 'B1028', 'B1042', 'B1044', 'B1046', 'B1069', 'B1077', 'B1078', 'B1088', 'B1092']"
"nersisyan district, vanadzor","Nersisyan District, Vanadzor",OK,Lori,Vanadzor,,,Vanadzor,,,Armenia,40.79891698,44.50956292,Nominatim,,,,['B1043']
"nersisyan district 8, vanadzor","Nersisyan District 8, Vanadzor",OK,Lori,Vanadzor,8,,Vanadzor,,,Armenia,40.79893465,44.51030739,Nominatim,,,,['B972']
"nersisyan district 6, vanadzor","Nersisyan District 6, Vanadzor",OK,Lori,Vanadzor,6,,Vanadzor,,,Armenia,40.79916455,44.50832195,Nominatim,,,,['B1064']
"վազգեն արաջինի փողոց, վաղարշապատ","Vazgen Arajin Street, Vagharshapat",OK,Armavir,Vagharshapat,,,City of Ejmiatsin,Vazgen First Street,,Armenia,40.16927,44.29404,Yandex,,,,['B244']
"վազգեն առաջինի փողոց 17, վաղարշապատ","17 Vazgen Arayani Street, Vagharshapat",OK,Armavir,Vagharshapat,13/3,,City of Ejmiatsin,Vazgen First Street,,Armenia,40.167182,44.295046,Yandex,,,,['B288']
"վազգեն առաջինի փողոց, վաղարշապատ","Vazgen Arayani Street, Vagharshapat",OK,Armavir,Vagharshapat,,,Vagharshapat,Vazgen Arajin Street,,Armenia,40.17307124,44.29216566,Nominatim,,,,"['A7359', 'B183', 'B233']"
"vazgen arajin street, vagharshapat","Vazgen Arajin Street, Vagharshapat",OK,Armavir,Vagharshapat,,,Vagharshapat,Vazgen Arajin Street,,Armenia,40.16810856,44.29462243,Nominatim,,,,"['B117', 'B162', 'B206', 'B1132']"
"vazgen arajin street 6, vagharshapat","Vazgen Arajin Street 6, Vagharshapat",OK,Armavir,Vagharshapat,6,,Vagharshapat,Vazgen Arajin Street,,Armenia,40.165937,44.29606111,Nominatim,,,,"['B234', 'B235']"
"vazgen arajin street 43, vagharshapat","Vazgen Arajin Street 43, Vagharshapat",OK,Armavir,Vagharshapat,43a,,Vagharshapat,Vazgen Arajin Street,,Armenia,40.1688675,44.29360355,Nominatim,,,,['B232']
"վազգեն առաջինի փողոց 3, վաղարշապատ","3 Vazgen Arayani Street, Vagharshapat",OK,Armavir,Vagharshapat,3,,Vagharshapat,Vazgen Arajin Street,,Armenia,40.1653941,44.29583387,Nominatim,,,,['A7362']
"vardan mamikonyan street, vagharshapat","Vardan Mamikonyan Street, Vagharshapat",OK,Armavir,Vagharshapat,,,Vagharshapat,Vardan Mamikonyan Street,,Armenia,40.17273599,44.30288531,Nominatim,,,,['A7371']
"շահումյան փողոց, վաղարշապատ","Shahumyan Street, Vagharshapat",OK,Armavir,Vagharshapat,,Aram Manukyan District,Vagharshapat,Shahumyan Street,,Armenia,40.15838496,44.30501668,Nominatim,,,,['A7353']
"улица рафаэла патканяна 19, вагаршапат","Rafael Patkanyan Street 19, Vagharshapat",OK,Armavir,Vagharshapat,19,,Ejmiatsin,Raphael Patkanyan Street,,Armenia,40.165541,44.286422,Yandex,,,,['B255']
"orjonikidze street 23, vagharshapat","Orjonikidze Street 23, Vagharshapat",OK,Armavir,Vagharshapat,23,,Vagharshapat,Orjonikidze Street,,Armenia,40.15859861,44.30376585,Nominatim,,,,['A7358']
"նար-դոս փողոց, վաղարշապատ","Nar-dos Street, Vagharshapat",OK,Armavir,Vagharshapat,,,Vagharshapat,Nar-dos Street,,Armenia,40.16463378,44.29221986,Nominatim,,,,['A7337']
"улица мовсес хоренаци, вагаршапат","Movses Khorenatsi Street, Vagharshapat",OK,Armavir,Vagharshapat,,,City of Ejmiatsin,Movses Khorenatsi Street,,Armenia,40.164466,44.285722,Yandex,,,,['B214']
"movses khorenatsi street, vagharshapat","Movses Khorenatsi Street, Vagharshapat",OK,Armavir,Vagharshapat,,,Vagharshapat,Movses Khorenatsi Street,,Armenia,40.16529221,44.28121182,Nominatim,,,,['B190']
"movses khorenatsi street 14, vagharshapat","Movses Khorenatsi Street 14, Vagharshapat",OK,Armavir,Vagharshapat,14,,Vagharshapat,Movses Khorenatsi Street,,Armenia,40.16352285,44.29152577,Nominatim,,,,['B243']
"movses khorenatsi street 12, vagharshapat","Movses Khorenatsi Street 12, Vagharshapat",OK,Armavir,Vagharshapat,14,,Vagharshapat,Movses Khorenatsi Street,,Armenia,40.16529221,44.28121182,Nominatim,,,,['A7354']
"улица мовсеса хоренаци 28, вагаршапат","28 Movses Khorenatsi Street, Vagharshapat",OK,Armavir,Vagharshapat,28,,City of Ejmiatsin,Movses Khorenatsi Street,,Armenia,40.164004,44.289261,Yandex,,,,['B191']
"մովսես խորենացի փողոց 20ա, վաղարշապատ","20a Movses Khorenatsi Street, Vagharshapat",OK,Armavir,Vagharshapat,20A,,Ejmiatsin,Movses Khorenatsi Street,,Armenia,40.163811,44.28989,Yandex,,,,['B136']
"misak manushyan street 12, vagharshapat","Misak Manushyan Street 12, Vagharshapat",OK,Armavir,Vagharshapat,12,,Vagharshapat,Misak Manushyan Street,,Armenia,40.16673995,44.32966511,Nominatim,,,,['B224']
"manushyan street 10, vagharshapat","Manushyan Street 10, Vagharshapat",OK,Armavir,Vagharshapat,10,,Vagharshapat,Misak Manushyan Street,,Armenia,40.16723005,44.33023397,Nominatim,,,,['B186']
"մանուշյան փողոց 3, վաղարշապատ","3 Manushyan Street, Vagharshapat",OK,Armavir,Vagharshapat,3,,Vagharshapat,Misak Manushyan Street,,Armenia,40.16722575,44.32688777,Nominatim,,,,['A24905']
"մեսրոպ մաշտոց փողոց 64, վաղարշապատ","64 Mesrop Mashtots Street, Vagharshapat",OK,Armavir,Vagharshapat,65,,City of Ejmiatsin,Mesrop Mashtots Street,,Armenia,40.166327,44.298469,Yandex,,,,['B260']
"մեսրոպ մաշտոցի փողոց, վաղարշապատ","Mesrop Mashtots Street, Vagharshapat",OK,Armavir,Vagharshapat,,,City of Ejmiatsin,Mesrop Mashtots Street,,Armenia,40.166603,44.307811,Yandex,,,,"['A7342', 'B287']"
"улица месропа маштоца, вагаршапат","Mesrop Mashtots Street, Vagharshapat",OK,Armavir,Vagharshapat,,,City of Ejmiatsin,Mesrop Mashtots Street,,Armenia,40.166603,44.307811,Yandex,,,,['B221']
"mesrop mashtots street, vagharshapat","Mesrop Mashtots Street, Vagharshapat",OK,Armavir,Vagharshapat,,,Vagharshapat,Mesrop Mashtots Street,,Armenia,40.16584865,44.2997973,Nominatim,,,,"['A7341', 'B130', 'B238', 'B264', 'B304']"
"mesrop mashtots street 6, vagharshapat","Mesrop Mashtots Street 6, Vagharshapat",OK,Armavir,Vagharshapat,6,,Vagharshapat,Mesrop Mashtots Street,,Armenia,40.1640444,44.29533505,Nominatim,,,,['B262']
"mesrop mashtots street 48, vagharshapat","Mesrop Mashtots Street 48, Vagharshapat",OK,Armavir,Vagharshapat,48,,Vagharshapat,Mesrop Mashtots Street,,Armenia,40.166346,44.3080678,Nominatim,,,,['B152']
"mesrop mashtots street 18, vagharshapat","Mesrop Mashtots Street 18, Vagharshapat",OK,Armavir,Vagharshapat,18,,Vagharshapat,Mesrop Mashtots Street,,Armenia,40.16590915,44.30061264,Nominatim,,,,['B236']
"mesrop mashtots street 14, vagharshapat","Mesrop Mashtots Street 14, Vagharshapat",OK,Armavir,Vagharshapat,14,,Vagharshapat,Mesrop Mashtots Street,,Armenia,40.16523445,44.29902346,Nominatim,,,,"['A7345', 'A7349', 'B197', 'B249']"
"mesrop mashtots street 10, vagharshapat","Mesrop Mashtots Street 10, Vagharshapat",OK,Armavir,Vagharshapat,10,,Vagharshapat,Mesrop Mashtots Street,,Armenia,40.1649041,44.29715726,Nominatim,,,,['B112']
"mesrop mashtots st, vagharshapat","Mesrop Mashtots Street, Vagharshapat",OK,Armavir,Vagharshapat,,,Vagharshapat,Mesrop Mashtots Street,,Armenia,40.16584865,44.2997973,Nominatim,,,,"['A7351', 'B128']"
"mashtotsi st, vagharshapat","Mashtotsi Street, Vagharshapat",OK,Armavir,Vagharshapat,,,City of Ejmiatsin,Mesrop Mashtots Street,,Armenia,40.166603,44.307811,Yandex,,,,['B139']
"mashtots st, vagharshapat","Mashtots Street, Vagharshapat",OK,Armavir,Vagharshapat,,,Vagharshapat,Mesrop Mashtots Street,,Armenia,40.16610627,44.30068258,Nominatim,,,,['B154']
"mesrop mashtotsi st, vagharshapat","Mesrop Mashtotsi Street, Vagharshapat",OK,Armavir,Vagharshapat,,,Ejmiatsin,Mesrop Mashtots Street,,Armenia,40.166603,44.307811,Yandex,,,,"['B106', 'B182']"
"mesrop mashtots st 19, vagharshapa","Mesrop Mashtots Street 19, Vagharshapa",OK,Armavir,Vagharshapat,19,,Ejmiatsin,Mesrop Mashtots Street,,Armenia,40.166355,44.313686,Yandex,,,,['B229']
"մեսրոպ մաշտոց փողոց 22, վաղարշապատ","Mesrop Mashtots Street 22, Vagharshapat",OK,Armavir,Vagharshapat,22,,Vagharshapat,Masrop Mashtots Street,,Armenia,40.1695808,44.32902815,Nominatim,,,,['B210']
"մեսրոպ մաշտոց փողոց, վաղարշապատ","Mesrop Mashtots Street, Vagharshapat",OK,Armavir,Vagharshapat,,Mashtots Residential Complex,City of Ejmiatsin,Masrop Mashtots Street,,Armenia,40.166065,44.303086,Yandex,,,,"['A7363', 'A7365', 'B209', 'B253']"
"улица манушяна 11, вагаршапат","Manushyan Street 11, Vagharshapat",OK,Armavir,Vagharshapat,11,,City of Ejmiatsin,Manushyan Street,,Armenia,40.166672,44.330251,Yandex,,,,['B193']
"վռամ կոստանյան փողոց 1, վաղարշապատ","1 Vram Kostanyan Street, Vagharshapat",OK,Armavir,Vagharshapat,1,,Ejmiatsin,Leonid Azgaldyan Street,,Armenia,40.164349,44.297732,Yandex,,,,['B272']
"վռամ կոստանյան փողոց, վաղարշապատ","Vram Kostanyan Street, Vagharshapat",OK,Armavir,Vagharshapat,,,Ejmiatsin,Leonid Azgaldyan Street,,Armenia,40.163322,44.299664,Yandex,,,,"['B157', 'B171']"
"улица врама костаняна 8, вагаршапат","8 Vrama Kostanyana Street, Vagharshapat",OK,Armavir,Vagharshapat,8,,Ejmiatsin,Leonid Azgaldyan Street,,Armenia,40.163281,44.298316,Yandex,,,,['B212']
"վռամ կոստանյան փողոց 6, վաղարշապատ","6 Vram Kostanyan Street, Vagharshapat",OK,Armavir,Vagharshapat,6,,Ejmiatsin,Leonid Azgaldyan Street,,Armenia,40.163467,44.297885,Yandex,,,,['B150']
"улица карчикяна 1, вагаршапат","1 Karchikyana Street, Vagharshapat",OK,Armavir,Vagharshapat,1,,City of Ejmiatsin,Karchikyan Street,,Armenia,40.161013,44.302215,Yandex,,,,['B148']
"kamo street 4, vagharshapat","Kamo Street 4, Vagharshapat",OK,Armavir,Vagharshapat,4,,Vagharshapat,Kamo Street,,Armenia,40.1637872,44.30042922,Nominatim,,,,['B218']
"charents street, vagharshapat","Charents Street, Vagharshapat",OK,Armavir,Vagharshapat,,,Vagharshapat,Charents Street,,Armenia,40.16058387,44.28187311,Nominatim,,,,"['B134', 'B189', 'B245']"
"բաղրամյան փողոց, վաղարշապատ","Baghramyan Street, Vagharshapat",OK,Armavir,Vagharshapat,,,City of Ejmiatsin,Baghramyan Street,,Armenia,40.169724,44.290896,Yandex,,,,"['B241', 'B296']"
"baghramyan street, vagharshapat","Baghramyan Street, Vagharshapat",OK,Armavir,Vagharshapat,,,Vagharshapat,Baghramyan Street,,Armenia,40.16851974,44.29076856,Nominatim,,,,"['B105', 'B113', 'B114', 'B115', 'B116']"
"baghramyan street 22, vagharshapat","Baghramyan Street 22, Vagharshapat",OK,Armavir,Vagharshapat,22,,Vagharshapat,Baghramyan Street,,Armenia,40.1691698,44.29132359,Nominatim,,,,"['A7352', 'B227']"
"արարատյան փողոց 34ա, վաղարշապատ","34a Araratyan Street, Vagharshapat",OK,Armavir,Vagharshapat,34A,,City of Ejmiatsin,Araratyan Street,,Armenia,40.157105,44.29493,Yandex,,,,['B228']
"արագած փողոց, վաղարշապատ","Aragats Street, Vagharshapat",OK,Armavir,Vagharshapat,,,Vagharshapat,Aragats Street,,Armenia,40.16883935,44.32599931,Nominatim,,,,['B268']
"ул.адмирала исакова,","Admiral Isakova Street.,",OK,Armavir,Vagharshapat,,,Vagharshapat,Admiral Isakov Street,,Armenia,40.17377966,44.30135024,Nominatim,,,,['A3550']
"զվարթնոց թաղամաս, վաղարշապատ","Zvartnots District, Vagharshapat",OK,Armavir,Vagharshapat,,,City of Ejmiatsin,,,Armenia,40.170221,44.32699,Yandex,,,,"['B179', 'B205', 'B207', 'B242', 'B254']"
"orbeli brothers street, ծաղկաձոր","Orbeli Brothers Street, Tsaghkadzor",OK,Kotayk,Tsaghkadzor,,,Tsaghkadzor,Orbeli Brother's Street,,Armenia,40.534607,44.719312,Yandex,,,,['B742']
"օրբելի եղբայրների փողոց, ծաղկաձոր","Orbeli Brothers Street, Tsaghkadzor",OK,Kotayk,Tsaghkadzor,,,Tsakhkadzor,Orbeli Brothers Street,,Armenia,40.53257654,44.72041014,Nominatim,,,,['B741']
"олимпийская улица, цахкадзор","Olympic Street, Tsaghkadzor",OK,Kotayk,Tsaghkadzor,,,Tsaghkadzor,Olympic Street,,Armenia,40.530268,44.713284,Yandex,,,,"['A7435', 'B480', 'B870']"
"олимпийская улица 8, цахкадзор","Olympic Street 8, Tsaghkadzor",OK,Kotayk,Tsaghkadzor,8,,Tsaghkadzor,Olympic Street,,Armenia,40.528842,44.716805,Yandex,,,,"['B513', 'B532', 'B594', 'B641']"
"олимпийская улица 15, цахкадзор","Olympic Street 15, Tsaghkadzor",OK,Kotayk,Tsaghkadzor,15,,Tsaghkadzor,Olympic Street,,Armenia,40.528123,44.711757,Yandex,,,,"['B640', 'B642']"
"օլիմպիադիայի փողոց 8, ծաղկաձոր","8 Olympiadia Street, Tsaghkadzor",OK,Kotayk,Tsaghkadzor,8,,Tsaghkadzor,Olympic Street,,Armenia,40.528842,44.716805,Yandex,,,,"['A7465', 'B417', 'B443', 'B495', 'B543', 'B559', 'B560', 'B562', 'B569', 'B778', 'B868']"
