Unnamed: 0,Address,Translated,Status,Longitude,Latitude,Country,Province,Town,api,Administrative District,Building,Neighbourhood,Street,Village,Block,Lane,Street Number,Index
4940,"Momik St 6, Yeghegnadzor","Momik Street 6, Yeghegnadzor",OK,45.3338483,39.7595594,Armenia,Vayots Dzor,Yeghegnadzor,Nominatim,Yeghegnadzor,6,,Momik Street,,,,,['B3721']
5032,"Shahumyan street, Yeghegnadzor","Shahumyan Street, Yeghegnadzor",OK,45.32811295,39.76040185,Armenia,Vayots Dzor,Shahumyan,Nominatim,Yeghegnadzor,,,Shahumyan Street,,,,,['B4984']
5110,Vayots Dzor › Yeghegnadzor,Vayots Dzor › Yeghegnadzor,OK,45.3302273,39.7601008,Armenia,Vayots Dzor,Yeghegnadzor,Nominatim,Yeghegnadzor,,,,,,,,['B6021']
5179,"Улица Араратян 36, Веди","Araratyan Street 36, Vedi",OK,44.715727,39.912214,Armenia,Ararat,Ararat,Yandex,Vedi,36,,Araratyan Street,,,,,['B7238']
1432,"Lernagorts Street, Vardenis","Lernagorts Street, Vardenis",OK,45.726979,40.184574,Armenia,Gegharkunik,Vardenis,Yandex,Vardenis,,,Lernagorts Street,,,,,"['A12301', 'B3138']"
3111,"Улица Лернагорцнери 3, Варденис","3 Lernagortsneri Street, Vardenis",OK,42.1124521,42.2839763,Georgia,Gegharkunik,Vardenis,Azure,Vardenis,3,,Ioseb Street'alinis Kucha,,,,,['A29103']
3112,"Улица Лернагорцнери, Варденис","Lernagortsneri Street, Vardenis",OK,45.748179,40.185201,Armenia,Gegharkunik,Vardenis,Yandex,Vardenis,,,Lernagortsner Street,,,,,['A29104']
3270,"Ա. Սեսմանուկյան փողոց 10, Վարդենիս","A. Sesmanukyan Street 10, Vardenis",OK,45.74323714,40.18753591,Armenia,Gegharkunik,Vardenis,Nominatim,Vardenis,10,Posyolok District,A. Sesmanukyan Street,,,,,['A29368']
3778,"Լեռնագործների փողոց 20/22, Վարդենիս","20/22 Mountain Workers Street, Vardenis",OK,45.746616,40.185649,Armenia,Gegharkunik,Vardenis,Yandex,Vardenis,12,,Lernagortsner Street,,,,,['A30514']
4608,"1-ին փողոց, Գեղաքար","1st Street, Geghakar",OK,45.6824007,40.11945338,Armenia,,Geghakar,Nominatim,Vardenis,,,,Geghakar,,,,['B19']
4777,Gegharkunik › Vardenis,Gegharkunik › Vardenis,OK,45.7269788,40.184574,Armenia,Gegharkunik,Gegharkunik,Nominatim,Vardenis,,,,,,,,"['B1843', 'B1844', 'B1845']"
5275,"Ա․ Սեսմանուկյան փողոց 1-ին նրբանցք 14, Վարդենիս","A. Sesmanukyan Street, 1st Lane, 14, Vardenis",OK,45.746814,40.186103,Armenia,Gegharkunik,Vardenis,Yandex,Vardenis,14,,A. Sesmanukyan Street,,,1st Lane,,['B7368']
5276,"Ա. Սեսմանուկյան փողոց 7, Վարդենիս","A. Sesmanukyan Street 7, Vardenis",OK,45.74323714,40.18753591,Armenia,Gegharkunik,Vardenis,Nominatim,Vardenis,7,Posyolok District,A. Sesmanukyan Street,,,,,['B7369']
5277,"Ազատության փողոց 1, Ձորաղբյուր","1 Azatutyan Street, Dzoraghbyur",OK,44.6240996,40.20064285,Armenia,,Azat,Nominatim,Vardenis,1,Green Field,Azatutyan Street,Dzoraghbyur,,,,['B7371']
5358,"Եղիշե Չարենցի փողոց 46, Վարդենիս","46 Yeghishe Charents Street, Vardenis",OK,45.743301,40.189617,Armenia,Gegharkunik,Vardenis,Yandex,Vardenis,46,,Yeghishe Charents Street,,,,,['B7510']
5359,"Եղիշե Չարենցի փողոց 54, Վարդենիս","54 Yeghishe Charents Street, Vardenis",OK,45.745448,40.19032,Armenia,Gegharkunik,Vardenis,Yandex,Vardenis,54,,Yeghishe Charents Street,,,,,['B7511']
719,"Chukhajyan street 8, Vanadzor","Chukhajyan Street 8, Vanadzor",OK,44.52361239,40.79167575,Armenia,Lori,,Nominatim,Vanadzor,8,Lager,Chukhajyan Street,,,,,['A6283']
905,"Garegin Nzhdeh Street 11, Vanadzor","Garegin Nzhdeh Street 11, Vanadzor",OK,44.487322,40.809187,Armenia,Lori,Nzhdeh,Yandex,Vanadzor,11,,Garegin Nzhdeh Street,,,,,"['A7352', 'B1806']"
982,"Grigor Lusavorich street, Vanadzor","Grigor Lusavorich Street, Vanadzor",OK,44.48957436,40.81252716,Armenia,Lori,,Nominatim,Vanadzor,,,Grigor Lusavorich Street,,,,,"['A7703', 'B1931', 'B1932', 'B1933', 'B1934', 'B1935']"
1434,Lorri › Vanadzor,Lorri › Vanadzor,OK,44.4851821,40.8112384,Armenia,Lori,Lor,Nominatim,Vanadzor,,,,,,,,"['A12303', 'A12304', 'A12305', 'A12306', 'A12307', 'A12308', 'A12309', 'A12310', 'A12311', 'A12312', 'A12313', 'A12314', 'B3153', 'B3154', 'B3155', 'B3156', 'B3157', 'B3158', 'B3159', 'B3160', 'B3161', 'B3162', 'B3163', 'B3164', 'B3165', 'B3166', 'B3167', 'B3168', 'B3169', 'B3170', 'B3171', 'B3172', 'B3173', 'B3174', 'B3175', 'B3176', 'B3177', 'B3178', 'B3179', 'B3180', 'B3181', 'B3182', 'B3183', 'B3184', 'B3185', 'B3186', 'B3187', 'B3188']"
1741,"Moskovyan street 5, Vanadzor","Moskovyan Street 5, Vanadzor",OK,44.48175764,40.81709395,Armenia,Lori,,Nominatim,Vanadzor,5,,Moskovyan Street,,,,,['A14693']
2455,"Tigran Mets Avenue 73, Vanadzor","Tigran Mets Avenue 73, Vanadzor",OK,44.492795,40.80898885,Armenia,Lori,,Nominatim,Vanadzor,73,,Tigran Mets Avenue,,,,,['A21255']
2639,"Vardanants Street 51, Vanadzor","Vardanants Street 51, Vanadzor",OK,44.4967128,40.8049829,Armenia,Lori,,Nominatim,Vanadzor,51,,Vardanants Street,,,,,"['A23311', 'B5888']"
2645,"Vardanants Street, Vanadzor","Vardanants Street, Vanadzor",OK,44.4704468,40.81502229,Armenia,Lori,,Nominatim,Vanadzor,,,Vardanants Street,,,,,"['A23321', 'A23322', 'A23323', 'A23324', 'B5890', 'B5891', 'B5892', 'B5893']"
2859,"Мекенашинарарнери 26, Ванадзор","Mekenashinarreri 26, Vanadzor",OK,44.44675176,40.83854055,Armenia,Lori,,Nominatim,Vanadzor,26,Meqenashinararneri,,,,,,['A28724']
3047,"Улица Григора Нарекаци 47, Ванадзор","47 Grigora Narekatsi Street, Vanadzor",OK,44.479947,40.822359,Armenia,Lori,Narek,Yandex,Vanadzor,47,,Grigor Narekatsi Street,,,,,"['A29013', 'A29014']"
3849,"Կարեն Դեմիրճյան փողոց, Վանաձոր","Karen Demirchyan Street, Vanadzor",OK,44.48278525,40.81491875,Armenia,Lori,,Nominatim,Vanadzor,,,Karen Demirchyan Street,,,,,['A30651']
4083,"Մխիթար Գոշ փողոց 7, Վանաձոր","7 Mkhitar Gosh Street, Vanadzor",OK,44.4909279,40.810099,Armenia,Lori,Gosh,Nominatim,Vanadzor,7,,Mkhitar Gosh Street,,,,,['A31118']
4244,"Շահումյան փողոց, Վաղարշապատ","Shahumyan Street, Vagharshapat",OK,44.30501668,40.15838496,Armenia,,Shahumyan,Nominatim,Vanadzor,,Aram Manukyan District,Shahumyan Street,,,,,['A31703']
4412,"Ստեփան Շահումյանի փողոց, Վաղարշապատ","Stepan Shahumyan Street, Vagharshapat",OK,44.301658,40.160476,Armenia,,Shahumyan,Yandex,Vanadzor,,,Stepan Shahumyan Street,,,,,['A32104']
4663,"Agayan street 83, Vanadzor","Agayan Street 83, Vanadzor",OK,44.5219424,40.8023477,Armenia,Lori,,Nominatim,Vanadzor,83,Dimats,Aghayan Street,,,,,['B209']
4664,"Agayan street, Vanadzor","Agayan Street, Vanadzor",OK,44.52045141,40.80233788,Armenia,Lori,,Nominatim,Vanadzor,,Dimats,Aghayan Street,,,,,"['B211', 'B212', 'B213']"
4713,"Avetik Isahakyan Street 4, Vanadzor","Avetik Isahakyan Street 4, Vanadzor",OK,44.514523,40.798975,Armenia,Lori,Isahakyan,Yandex,Vanadzor,4,,Avetik Isahakyan Street,,,,,['B1154']
4732,"Batumi street 15, Vanadzor","Batumi Street 15, Vanadzor",OK,44.47834594,40.8087236,Armenia,Lori,,Nominatim,Vanadzor,15,,Batumi Street,,,,,['B1305']
4733,"Batumi street 5, Vanadzor","Batumi Street 5, Vanadzor",OK,44.48076323,40.81345985,Armenia,Lori,,Nominatim,Vanadzor,5,,Batumi Street,,,,,['B1306']
4746,"Chukhajyan street 58, Vanadzor","Chukhajyan Street 58, Vanadzor",OK,44.52891184,40.7879902,Armenia,Lori,,Nominatim,Vanadzor,58,Lager,Chukhajyan Street,,,,,['B1574']
4747,"Chukhajyan street, Vanadzor","Chukhajyan Street, Vanadzor",OK,44.52085231,40.79304442,Armenia,Lori,,Nominatim,Vanadzor,,Lager,Chukhajyan Street,,,,,"['B1575', 'B1576']"
4770,"Garegin Nzhdeh Street 2, Vanadzor","Garegin Nzhdeh Street 2, Vanadzor",OK,44.488534,40.812456,Armenia,Lori,Nzhdeh,Yandex,Vanadzor,2,,Garegin Nzhdeh Street,,,,,['B1808']
4772,"Garegin Nzhdeh Street, Vanadzor","Garegin Nzhdeh Street, Vanadzor",OK,44.486136,40.80759,Armenia,Lori,Nzhdeh,Yandex,Vanadzor,,,Garegin Nzhdeh Street,,,,,"['B1812', 'B1813', 'B1814']"
4798,"Grigor Lusavorich street 31, Vanadzor","Grigor Lusavorich Street 31, Vanadzor",OK,44.48832156,40.813634,Armenia,Lori,,Nominatim,Vanadzor,31,,Grigor Lusavorich Street,,,,,['B1930']
4828,"Isahakyan street 17, Vanadzor","Isahakyan Street 17, Vanadzor",OK,44.51592555,40.7979018,Armenia,Lori,Isahakyan,Nominatim,Vanadzor,17,Dimats,Isahakyan Street,,,,,['B2210']
4845,"Karen Demirchyan Street, Vanadzor","Karen Demirchyan Street, Vanadzor",OK,44.48278525,40.81491875,Armenia,Lori,,Nominatim,Vanadzor,,,Karen Demirchyan Street,,,,,['B2273']
4861,"Knunyants street 2, Vanadzor","Knunyants Street 2, Vanadzor",OK,44.5034066,40.80359085,Armenia,Lori,,Nominatim,Vanadzor,2,Dimats,Knunyants Street,,,,,"['B2506', 'B2507']"
4862,"Knunyants street 48, Vanadzor","Knunyants Street 48, Vanadzor",OK,44.51258024,40.8029731,Armenia,Lori,,Nominatim,Vanadzor,48,Dimats,Knunyants Street,,,,,['B2508']
4886,"Lazyan street 18, Vanadzor","Lazyan Street 18, Vanadzor",OK,44.48129669,40.81339145,Armenia,Lori,,Nominatim,Vanadzor,18,,Lazyan Street,,,,,['B3075']
4887,"Lazyan street, Vanadzor","Lazyan Street, Vanadzor",OK,44.48150314,40.81351373,Armenia,Lori,,Nominatim,Vanadzor,,,Lazyan Street,,,,,['B3076']
4917,"Meqenashinararneri district, Vanadzor","Meqenashinararneri District, Vanadzor",OK,44.44735771,40.83682211,Armenia,Lori,,Nominatim,Vanadzor,,Meqenashinararneri,,,,,,['B3450']
4942,"Moskovyan street 52/2, Vanadzor","Moskovyan Street 52/2, Vanadzor",OK,44.4900404,40.81354655,Armenia,Lori,,Nominatim,Vanadzor,52/2,,Moskovyan Street,,,,,['B3731']
4943,"Moskovyan street 54, Vanadzor","Moskovyan Street 54, Vanadzor",OK,44.4909427,40.8138016,Armenia,Lori,,Nominatim,Vanadzor,54,,Moskovyan Street,,,,,['B3732']
4944,"Moskovyan street 64, Vanadzor","Moskovyan Street 64, Vanadzor",OK,44.49429049,40.8132489,Armenia,Lori,,Nominatim,Vanadzor,64,,Moskovyan Street,,,,,['B3733']
4945,"Moskovyan street 68, Vanadzor","Moskovyan Street 68, Vanadzor",OK,44.4949419,40.81303665,Armenia,Lori,,Nominatim,Vanadzor,68,,Moskovyan Street,,,,,['B3734']
4946,"Moskovyan street, Vanadzor","Moskovyan Street, Vanadzor",OK,44.49094829,40.81421553,Armenia,Lori,,Nominatim,Vanadzor,,,Moskovyan Street,,,,,"['B3738', 'B3739', 'B3740', 'B3741', 'B3742']"
4955,"Myasnikyan street 12, Vanadzor","Myasnikyan Street 12, Vanadzor",OK,44.4909947,40.8074254,Armenia,Lori,Myasnikyan,Nominatim,Vanadzor,12,,Myasnikyan Street,,,,,"['B3783', 'B3784']"
4957,"Myasnikyan street, Vanadzor","Myasnikyan Street, Vanadzor",OK,44.4877647,40.80268858,Armenia,Lori,Myasnikyan,Nominatim,Vanadzor,,,Myasnikyan Street,,,,,"['B3788', 'B3789']"
4975,"Narekaci street 21, Vanadzor","Narekaci Street 21, Vanadzor",OK,44.47339733,40.8243067,Armenia,Lori,Narek,Nominatim,Vanadzor,21,,Narekatsi Street,,,,,['B3973']
4976,"Narekaci street, Vanadzor","Narekaci Street, Vanadzor",OK,44.45501813,40.82871017,Armenia,Lori,Narek,Nominatim,Vanadzor,,Tavros District,Narekatsi Street,,,,,"['B3974', 'B3975']"
4978,"Nersisyan district 6, Vanadzor","Nersisyan District 6, Vanadzor",OK,44.50832195,40.79916455,Armenia,Lori,,Nominatim,Vanadzor,6,Lager,,,,,,['B3994']
4979,"Nersisyan district 8, Vanadzor","Nersisyan District 8, Vanadzor",OK,44.51030739,40.79893465,Armenia,Lori,,Nominatim,Vanadzor,8,Lager,,,,,,['B3995']
4980,"Nersisyan district, Vanadzor","Nersisyan District, Vanadzor",OK,44.50956292,40.79891698,Armenia,Lori,,Nominatim,Vanadzor,,Lager,,,,,,['B3996']
4981,"Nersisyan lane, Vanadzor","Nersisyan Lane, Vanadzor",OK,44.514674,40.79722537,Armenia,Lori,,Nominatim,Vanadzor,,Dimats,Nersisyan Lane,,,,,['B3997']
5009,"Sankt Peterburg street, Vanadzor","Sankt Peterburg Street, Vanadzor",OK,44.52826285,40.78943226,Armenia,Lori,,Nominatim,Vanadzor,,Bazum,Sankt Peterburg Street,,,,,['B4667']
5036,"Shinararneri street 1, Vanadzor","Shinararneri Street 1, Vanadzor",OK,44.5163591,40.8002661,Armenia,Lori,,Nominatim,Vanadzor,1,Dimats,Shinararneri Street,,,,,['B4989']
5038,"Shinararneri street 7, Vanadzor","Shinararneri Street 7, Vanadzor",OK,44.52075045,40.79931815,Armenia,Lori,,Nominatim,Vanadzor,7,Dimats,Shinararneri Street,,,,,['B4992']
5039,"Shinararneri street, Vanadzor","Shinararneri Street, Vanadzor",OK,44.52215044,40.79846759,Armenia,Lori,,Nominatim,Vanadzor,,Dimats,Shinararneri Street,,,,,['B4993']
5050,"Stepan Zoryan street 21, Vanadzor","Stepan Zoryan Street 21, Vanadzor",OK,44.48083216,40.80964435,Armenia,Lori,,Nominatim,Vanadzor,21,,Stepan Zoryan Street,,,,,['B5152']
5051,"Stepan Zoryan street 79/1, Vanadzor","Stepan Zoryan Street 79/1, Vanadzor",OK,44.48660613,40.80775,Armenia,Lori,,Nominatim,Vanadzor,79/1,,Stepan Zoryan Street,,,,,['B5153']
5052,"Sukhumi street 14, Vanadzor","Sukhumi Street 14, Vanadzor",OK,44.52909661,40.7965275,Armenia,Lori,,Nominatim,Vanadzor,14,Bazum,Sukhumi Street,,,,,['B5154']
5068,"Taterakan street 2, Vanadzor","Taterakan Street 2, Vanadzor",OK,44.493621,40.8098659,Armenia,Lori,,Nominatim,Vanadzor,2,,Taterakan Street,,,,,['B5239']
5069,"Tavros 4-th street 1st lane, Vanadzor","Tavros 4th Street 1st Lane, Vanadzor",OK,44.446017,40.832662,Armenia,Lori,,Yandex,Vanadzor,,,Tavros Street,,,1st Deadlock,4th,['B5240']
5073,"Teryan stret, Vanadzor","Teryan Street, Vanadzor",OK,44.483136,40.811733,Armenia,Lori,,Yandex,Vanadzor,,,Vahan Teryan Street,,,,,['B5382']
5074,"Tigran Mets Ave 27, Vanadzor","Tigran Mets Avenue 27, Vanadzor",OK,44.48223325,40.81238045,Armenia,Lori,,Nominatim,Vanadzor,27,,Tigran Mets Avenue,,,,,['B5387']
5076,"Tigran Mets Avenue 34, Vanadzor","Tigran Mets Avenue 34, Vanadzor",OK,44.48935597,40.80902765,Armenia,Lori,,Nominatim,Vanadzor,34,,Tigran Mets Avenue,,,,,"['B5409', 'B5410']"
5078,"Tigran Mets Avenue 38, Vanadzor","Tigran Mets Avenue 38, Vanadzor",OK,44.49167539,40.80862915,Armenia,Lori,,Nominatim,Vanadzor,38,,Tigran Mets Avenue,,,,,['B5415']
5079,"Tigran Mets Avenue 50, Vanadzor","Tigran Mets Avenue 50, Vanadzor",OK,44.4960694,40.8074639,Armenia,Lori,,Nominatim,Vanadzor,50,,Tigran Mets Avenue,,,,,['B5418']
5080,"Tigran Mets Avenue 56, Vanadzor","Tigran Mets Avenue 56, Vanadzor",OK,44.49631675,40.8062591,Armenia,Lori,,Nominatim,Vanadzor,56,,Tigran Mets Avenue,,,,,['B5419']
5081,"Tigran Mets Avenue 59, Vanadzor","Tigran Mets Avenue 59, Vanadzor",OK,44.48873157,40.8104393,Armenia,Lori,,Nominatim,Vanadzor,59,,Tigran Mets Avenue,,,,,['B5420']
5082,"Tigran Mets Avenue 75, Vanadzor","Tigran Mets Avenue 75, Vanadzor",OK,44.49360086,40.8087242,Armenia,Lori,,Nominatim,Vanadzor,75,,Tigran Mets Avenue,,,,,['B5421']
5084,"Tigran Mets Avenue, Vanadzor","Tigran Mets Avenue, Vanadzor",OK,44.4961571,40.8076548,Armenia,Lori,,Nominatim,Vanadzor,,,Tigran Mets Avenue,,,,,"['B5424', 'B5425', 'B5426', 'B5427', 'B5428', 'B5429', 'B5430', 'B5431', 'B5432']"
5085,"Tigranyan street, Vanadzor","Tigranyan Street, Vanadzor",OK,44.46894114,40.81007906,Armenia,Lori,,Nominatim,Vanadzor,,,Tigranyan Street,,,,,['B5470']
5102,"Usanogakan street, Vanadzor","Usanogakan Street, Vanadzor",OK,44.51887685,40.79749307,Armenia,Lori,,Nominatim,Vanadzor,,Dimats,Usanogakan Street,,,,,['B5812']
5107,"Vardanants Street 122, Vanadzor","Vardanants Street 122, Vanadzor",OK,44.49636747,40.80431125,Armenia,Lori,,Nominatim,Vanadzor,122,,Vardanants Street,,,,,['B5880']
5129,"Yubeka Street 2, Vanadzor","Yubeka Street 2, Vanadzor",OK,44.52288978,40.7959893,Armenia,Lori,,Nominatim,Vanadzor,2,Bazum,Yubeka Street,,,,,"['B7120', 'B7121']"
5131,"Zaqaryan street, Vanadzor","Zaqaryan Street, Vanadzor",OK,44.4933792,40.80079324,Armenia,Lori,,Nominatim,Vanadzor,,,Zaqaryan Street,,,,,"['B7146', 'B7147']"
5138,"ГСК-4 17, Ванадзор","Gsk-4 17, Vanadzor",OK,44.43388428,40.84243711,Armenia,Lori,,Nominatim,Vanadzor,17,Gsk-4,,,,,,['B7175']
5154,"Квартал Нерсисян 11, Ванадзор","Nersisyan Quarter 11, Vanadzor",OK,44.511819,40.798374,Armenia,Lori,,Yandex,Vanadzor,11,Nersisyan Quarter,,,,,,['B7192']
5162,"Переулок Ереванянского Шоссе 89, Ванадзор","Yerevanyanskogo Highway Lane 89, Vanadzor",OK,44.506618,40.79619,Armenia,Yerevan,,Yandex,Vanadzor,89,,Yerevan Highway Lane,,,,,['B7209']
5169,"Проспект Тигран Мец 79, Ванадзор","Tigran Mets Avenue 79, Vanadzor",OK,44.485283,40.811432,Armenia,Lori,,Yandex,Vanadzor,79,,Tigran Mets Avenue,,,,,['B7222']
5188,"Улица Газароса Агаяна 83, Ванадзор","Ghazaros Aghayan Street 83, Vanadzor",OK,44.52197,40.80234,Armenia,Lori,,Yandex,Vanadzor,83,,Ghazaros Aghayan Street,,,,,['B7250']
5216,"Улица Карена Демирчяна, Ванадзор","Karena Demirchyan Street, Vanadzor",OK,44.48278525,40.81491875,Armenia,Lori,,Nominatim,Vanadzor,,,Karen Demirchyan Street,,,,,['B7283']
5219,"Улица Лазян 25, Ванадзор","Lazyan Street 25, Vanadzor",OK,44.483315,40.813084,Armenia,Lori,,Yandex,Vanadzor,25,,Lazyan Street,,,,,['B7289']
5251,"Улица Саят-Нова 10, Ванадзор","10 Sayat-nova Street, Vanadzor",OK,44.499826,40.796722,Armenia,Lori,Sayat-Nova,Yandex,Vanadzor,10,,Sayat-nova Street,,,,,['B7335']
5258,"Улица Татеракан 1/1, Ванадзор","Taterakan Street 1/1, Vanadzor",OK,44.49415246,40.81041045,Armenia,Lori,,Nominatim,Vanadzor,1/1,,Taterakan Street,,,,,['B7342']
5259,"Улица Татеракан, Ванадзор","Taterakan Street, Vanadzor",OK,44.4938716,40.80999246,Armenia,Lori,,Nominatim,Vanadzor,,,Taterakan Street,,,,,['B7343']
5266,"Улица Чухаджяна 56, Ванадзор","Chukhajyan Street 56, Vanadzor",OK,44.52886,40.78814,Armenia,Lori,,Yandex,Vanadzor,56,,Chukhajyan Street,,,,,['B7356']
5283,"Ամիրյան փողոց 5, Վանաձոր","5 Amiryan Street, Vanadzor",OK,44.51688111,40.7901015,Armenia,Lori,,Nominatim,Vanadzor,5,Lager,Amiryan Street,,,,,['B7378']
5334,"Գարեգին Նժդեհ փողոց, Վանաձոր","Garegin Nzhdeh Street, Vanadzor",OK,44.485193,40.807317,Armenia,Lori,Nzhdeh,Yandex,Vanadzor,,,Garegin Nzhdeh Street,,,1st Lane,,['B7464']
5336,"Գարեգին Նժդեհի փողոց 9/2-1 , Վանաձոր","Garegin Nzhdeh Street 9/2-1, Vanadzor",OK,44.4874947,40.8095582,Armenia,Lori,Nzhdeh,Nominatim,Vanadzor,9/2-1,,Garegin Njdeh Street,,,,,['B7471']
5345,"Գրիգոր Լուսավորչի փողոց 39/1, Վանաձոր","Grigor Lusavorich Street 39/1, Vanadzor",OK,44.490672,40.813193,Armenia,Lori,,Yandex,Vanadzor,39/1,,Grigor Lusavorich Street,,,,,['B7481']
5346,"Գրիգոր Նարեկացու փողոց 39, Վանաձոր","39 Grigor Narekatsi Street, Vanadzor",OK,44.476695,40.823573,Armenia,Lori,Narek,Yandex,Vanadzor,39,,Grigor Narekatsi Street,,,,,['B7482']
5347,"Գրիգոր Նարեկացու փողոց 6, Վանաձոր","6 Grigor Narekatsi Street, Vanadzor",OK,44.4747,40.823457,Armenia,Lori,Narek,Yandex,Vanadzor,6,,Grigor Narekatsi Street,,,,,['B7483']
5385,"Լոռու խճուղի 1, Վանաձոր","Lori Highway 1, Vanadzor",OK,44.5228168,40.8156446,Armenia,Lori,,Nominatim,Vanadzor,1,,Lori Avenue,,,,,['B7566']
5386,"Լոռու խճուղի, Վանաձոր","Lori Highway, Vanadzor",OK,44.5505821,40.7806708,Armenia,Lori,Lor,Nominatim,Vanadzor,,,Vanadzor-dilijan Highway,,,,,['B7567']
5413,"Կարեն Դեմիրճյան 1-ին նրբանցք 12, Վանաձոր","Karen Demirchyan 1st Alley 12, Vanadzor",OK,44.47570792,40.81581212,Armenia,Lori,,Nominatim,Vanadzor,12,,Karen Demirchyan Backstreet,,,,1st,['B7615']
5414,"Կարեն Դեմիրճյան փողոց 16, Վանաձոր","16 Karen Demirchyan Street, Vanadzor",OK,44.48086593,40.81531815,Armenia,Lori,,Nominatim,Vanadzor,16,,Karen Demirchyan Street,,,,,['B7616']
5415,"Կարեն Դեմիրճյան փողոց 7, Վանաձոր","Karen Demirchyan Street 7, Vanadzor",OK,44.4766822,40.8172195,Armenia,Lori,,Nominatim,Vanadzor,7,,Karen Demirchyan Street,,,,,['B7617']
5445,"Ղազարոս Աղայանի փողոց, Վանաձոր","Ghazaros Aghayan Street, Vanadzor",OK,44.512088,40.804477,Armenia,Lori,,Yandex,Vanadzor,,,Ghazaros Aghayan Street,,,,,"['B7668', 'B7669']"
5464,"Մեսրոպ Մաշտոցի փողոց 22, Վանաձոր","Mesrop Mashtots Street 22, Vanadzor",OK,44.502063,40.80331,Armenia,Lori,,Yandex,Vanadzor,22,,Mesrop Mashtots Street,,,,,['B7705']
5483,"Մյասնիկյան փողոց 7/25, Վանաձոր","7/25 Myasnikyan Street, Vanadzor",OK,44.4877647,40.80268858,Armenia,Lori,Myasnikyan,Nominatim,Vanadzor,7/25,,Myasnikyan Street,,,,,['B7728']
5515,"Ներսիսյան թաղամաս 15, Վանաձոր","Nersisyan District 15, Vanadzor",OK,44.51050098,40.79937185,Armenia,Lori,,Nominatim,Vanadzor,15,Lager,,,,,,['B7783']
5552,"Ուսանողական փողոց, Վանաձոր","Student Street, Vanadzor",OK,44.51887685,40.79749307,Armenia,Lori,,Nominatim,Vanadzor,,Dimats,Usanogakan Street,,,,,['B7895']
5626,"Տավրոսի 1-ին փողոց 63, Վանաձոր","63 Tavros 1st Street, Vanadzor",OK,44.4543764,40.8382942,Armenia,Lori,,Nominatim,Vanadzor,63,Tavros District,Tavros Street,,,,1st,['B8047']
5627,"Տավրոսի 1-ին փողոց, Վանաձոր","1st Tavros Street, Vanadzor",OK,44.45248555,40.83307302,Armenia,Lori,,Nominatim,Vanadzor,,Tavros District,Tavros Street,,,,1st,['B8048']
5628,"Տարոն-2 թաղամաս 10-1 , Վանաձոր","Taron-2nd District 10-1, Vanadzor",OK,44.434609,40.841743,Armenia,Lori,,Yandex,Vanadzor,10-1,Taron-2nd District,,,,,,['B8049']
5629,"Տարոն-2 թաղամաս 10-1, Վանաձոր","Taron-2nd District 10-1, Vanadzor",OK,44.434609,40.841743,Armenia,Lori,,Yandex,Vanadzor,10-1,Taron-2nd District,,,,,,"['B8050', 'B8051', 'B8052']"
5630,"Տարոն-4 թաղամաս, Վանաձոր","Taron-4th District, Vanadzor",OK,44.453698,40.838155,Armenia,Lori,,Yandex,Vanadzor,,Kvartal Taron-4,,,,,,"['B8053', 'B8054']"
5633,"Տիգրան Մեծ պողոտա, Վանաձոր","Tigran Mets Avenue, Vanadzor",OK,44.486037,40.810948,Armenia,Lori,,Yandex,Vanadzor,,,Tigran Mets Avenue,,,,,['B8059']
5634,"Տիգրան Մեծի պողոտա 20/1Ա, Վանաձոր","Tigran Mets Avenue 20/1a, Vanadzor",OK,44.4841705,40.8110128,Armenia,Lori,,Nominatim,Vanadzor,20/1A,,Tigran Mets Avenue,,,,,['B8060']
5640,"Տպագրիչների փողոց 9, Վանաձոր","9 Tpagrichneri Street, Vanadzor",OK,44.48685975,40.80658215,Armenia,Lori,,Nominatim,Vanadzor,9,,Tpagrichner Street,,,,,['B8067']
1095,"Hovanes Tumanyan street, Shenavan","Hovanes Tumanyan Street, Shenavan",OK,43.92596408,40.05864171,Armenia,Lori,Tumanyan,Nominatim,Tumanyan,,,Hovanes Tumanyan Street,Shenavan,,,,['A8638']
1102,"Hovhannes Tumanyan Street 10, Yerevan","Hovhannes Tumanyan Street 10, Yerevan",OK,44.521125,40.180019,Armenia,Yerevan,,Yandex,Tumanyan,10,,Tumanyan Street,,,,,['A8671']
1103,"Hovhannes Tumanyan Street 19, Yerevan","Hovhannes Tumanyan Street 19, Yerevan",OK,44.516625,40.182734,Armenia,Yerevan,,Yandex,Tumanyan,19,,Tumanyan Street,,,,,['A8672']
1104,"Hovhannes Tumanyan Street 31, Yerevan","Hovhannes Tumanyan Street 31, Yerevan",OK,44.51216,40.185938,Armenia,Yerevan,,Yandex,Tumanyan,31,,Tumanyan Street,,,,,"['A8673', 'A8674', 'A8675']"
1105,"Hovhannes Tumanyan Street 33, Yerevan","Hovhannes Tumanyan Street 33, Yerevan",OK,44.511415,40.186496,Armenia,Yerevan,,Yandex,Tumanyan,33,,Tumanyan Street,,,,,"['A8676', 'B2111']"
1106,"Hovhannes Tumanyan Street 38, Yerevan","Hovhannes Tumanyan Street 38, Yerevan",OK,44.512519,40.186193,Armenia,Yerevan,,Yandex,Tumanyan,38,,Tumanyan Street,,,,,"['A8677', 'A8678', 'A8679']"
1107,"Hovhannes Tumanyan Street 41, Yerevan","Hovhannes Tumanyan Street 41, Yerevan",OK,44.510229,40.187337,Armenia,Yerevan,,Yandex,Tumanyan,41,,Tumanyan Street,,,,,['A8680']
1108,"Hovhannes Tumanyan Street, Yerevan","Hovhannes Tumanyan Street, Yerevan",OK,44.50990925,40.18782185,Armenia,Yerevan,,Nominatim,Tumanyan,40,,Moskovyan Street,,,,,"['A8681', 'A8682']"
2516,"Tumanyan street 1, Yerevan","Tumanyan Street 1, Yerevan",OK,44.52252983,40.1784705,Armenia,Yerevan,,Nominatim,Tumanyan,1,,Tumanyan Street,,,,,"['A22228', 'B5672', 'B5673']"
2517,"Tumanyan street 10, Yerevan","Tumanyan Street 10, Yerevan",OK,44.52114257,40.18003095,Armenia,Yerevan,,Nominatim,Tumanyan,10,,Tumanyan Street,,,,,"['A22229', 'A22230', 'A22231']"
2518,"Tumanyan street 11, Yerevan","Tumanyan Street 11, Yerevan",OK,44.52009641,40.1802412,Armenia,Yerevan,,Nominatim,Tumanyan,11,,Tumanyan Street,,,,,"['A22232', 'B5674']"
2519,"Tumanyan street 11a, Yerevan","Tumanyan Street 11a, Yerevan",OK,44.51940922,40.18028535,Armenia,Yerevan,,Nominatim,Tumanyan,11a,,Tumanyan Street,,,,,"['A22233', 'B5675', 'B5676']"
2520,"Tumanyan street 12, Yerevan","Tumanyan Street 12, Yerevan",OK,44.52092961,40.1805081,Armenia,Yerevan,,Nominatim,Tumanyan,12,,Tumanyan Street,,,,,['A22234']
2521,"Tumanyan street 12Ա, Երևան","Tumanyan Street 12a, Yerevan",OK,44.5138938,40.1849662,Armenia,Yerevan,,Nominatim,Tumanyan,12a,,Tumanyan Street,,,,,['A22235']
2522,"Tumanyan street 13, Yerevan","Tumanyan Street 13, Yerevan",OK,44.51950645,40.1806359,Armenia,Yerevan,,Nominatim,Tumanyan,13,,Tumanyan Street,,,,,"['A22236', 'A22237']"
2523,"Tumanyan street 13, Երևան","Tumanyan Street 13, Yerevan",OK,44.51950645,40.1806359,Armenia,Yerevan,,Nominatim,Tumanyan,13,,Tumanyan Street,,,,,"['A22238', 'A22239']"
2524,"Tumanyan street 16, Yerevan","Tumanyan Street 16, Yerevan",OK,44.52037148,40.18068105,Armenia,Yerevan,,Nominatim,Tumanyan,16,,Tumanyan Street,,,,,['A22240']
2525,"Tumanyan street 18, Yerevan","Tumanyan Street 18, Yerevan",OK,44.52000065,40.1808706,Armenia,Yerevan,,Nominatim,Tumanyan,18,,Tumanyan Street,,,,,['A22241']
2526,"Tumanyan street 18Ա, Երևան","Tumanyan Street 18a, Yerevan",OK,44.5202134,40.1807589,Armenia,Yerevan,,Nominatim,Tumanyan,18a,,Tumanyan Street,,,,,['A22242']
2527,"Tumanyan street 19, Yerevan","Tumanyan Street 19, Yerevan",OK,44.51662754,40.18274445,Armenia,Yerevan,,Nominatim,Tumanyan,19,,Tumanyan Street,,,,,"['A22243', 'A22244']"
2528,"Tumanyan street 20, Yerevan","Tumanyan Street 20, Yerevan",OK,44.51975681,40.18109685,Armenia,Yerevan,,Nominatim,Tumanyan,20,,Tumanyan Street,,,,,['A22245']
2529,"Tumanyan street 21, Yerevan","Tumanyan Street 21, Yerevan",OK,44.51633155,40.18295895,Armenia,Yerevan,,Nominatim,Tumanyan,21,,Tumanyan Street,,,,,['A22246']
2530,"Tumanyan street 22, Yerevan","Tumanyan Street 22, Yerevan",OK,44.51889512,40.18163265,Armenia,Yerevan,,Nominatim,Tumanyan,22,,Tumanyan Street,,,,,['A22247']
2531,"Tumanyan street 29, Yerevan","Tumanyan Street 29, Yerevan",OK,44.51337221,40.1850749,Armenia,Yerevan,,Nominatim,Tumanyan,29,,Tumanyan Street,,,,,['A22248']
2532,"Tumanyan street 30, Yerevan","Tumanyan Street 30, Yerevan",OK,44.51725736,40.18283115,Armenia,Yerevan,,Nominatim,Tumanyan,30,,Tumanyan Street,,,,,"['A22249', 'A22250']"
2533,"Tumanyan street 31, Yerevan","Tumanyan Street 31, Yerevan",OK,44.5122241,40.1858786,Armenia,Yerevan,,Nominatim,Tumanyan,31,,Tumanyan Street,,,,,"['A22251', 'A22252', 'A22253', 'A22254', 'A22255', 'A22256', 'A22257', 'A22258', 'A22259', 'A22260', 'A22261', 'A22262', 'A22263', 'B5680', 'B5681']"
2534,"Tumanyan street 31, Երևան","Tumanyan Street 31, Yerevan",OK,44.5122241,40.1858786,Armenia,Yerevan,,Nominatim,Tumanyan,31,,Tumanyan Street,,,,,"['A22264', 'A22265', 'A22266']"
2535,"Tumanyan street 31a, Yerevan","Tumanyan Street 31a, Yerevan",OK,44.512424,40.18574045,Armenia,Yerevan,,Nominatim,Tumanyan,31ա,,Tumanyan Street,,,,,"['A22267', 'A22268']"
2536,"Tumanyan street 32, Yerevan","Tumanyan Street 32, Yerevan",OK,44.51665225,40.1832683,Armenia,Yerevan,,Nominatim,Tumanyan,32,,Tumanyan Street,,,,,"['A22269', 'A22270']"
2537,"Tumanyan street 32/1, Երևան","Tumanyan Street 32/1, Yerevan",OK,44.51695005,40.18354885,Armenia,Yerevan,,Nominatim,Tumanyan,32/1,,Tumanyan Street,,,,,['A22271']
2538,"Tumanyan street 33, Yerevan","Tumanyan Street 33, Yerevan",OK,44.51150004,40.1864017,Armenia,Yerevan,,Nominatim,Tumanyan,33,,Tumanyan Street,,,,,['A22272']
2539,"Tumanyan street 34, Yerevan","Tumanyan Street 34, Yerevan",OK,44.51607611,40.1836594,Armenia,Yerevan,,Nominatim,Tumanyan,34,,Tumanyan Street,,,,,"['A22273', 'A22274', 'A22275']"
2540,"Tumanyan street 35, Yerevan","Tumanyan Street 35, Yerevan",OK,44.51106313,40.18672185,Armenia,Yerevan,,Nominatim,Tumanyan,35,,Tumanyan Street,,,,,"['A22276', 'A22277', 'B5682']"
2541,"Tumanyan street 35/11, Yerevan","Tumanyan Street 35/11, Yerevan",OK,44.51059531,40.18665195,Armenia,Yerevan,,Nominatim,Tumanyan,35/11,,Tumanyan Street,,,,,['A22278']
2542,"Tumanyan street 35a, Yerevan","Tumanyan Street 35a, Yerevan",OK,44.51036514,40.18643885,Armenia,Yerevan,,Nominatim,Tumanyan,35a,,Tumanyan Street,,,,,['A22279']
2543,"Tumanyan street 37, Երևան","Tumanyan Street 37, Yerevan",OK,44.51067578,40.1870374,Armenia,Yerevan,,Nominatim,Tumanyan,37,,Tumanyan Street,,,,,['A22280']
2544,"Tumanyan street 39, Yerevan","Tumanyan Street 39, Yerevan",OK,44.51042478,40.1871677,Armenia,Yerevan,,Nominatim,Tumanyan,39,,Tumanyan Street,,,,,"['A22281', 'A22282', 'B5683']"
2545,"Tumanyan street 39, Երևան","Tumanyan Street 39, Yerevan",OK,44.51042478,40.1871677,Armenia,Yerevan,,Nominatim,Tumanyan,39,,Tumanyan Street,,,,,['A22283']
2546,"Tumanyan street 40, Yerevan","Tumanyan Street 40, Yerevan",OK,44.51195337,40.18666985,Armenia,Yerevan,,Nominatim,Tumanyan,40,,Tumanyan Street,,,,,"['A22284', 'A22285', 'A22286', 'A22287', 'A22288', 'B5685']"
2547,"Tumanyan street 41, Yerevan","Tumanyan Street 41, Yerevan",OK,44.51026151,40.187306,Armenia,Yerevan,,Nominatim,Tumanyan,41,,Tumanyan Street,,,,,"['A22289', 'B5686']"
2548,"Tumanyan street 5a, Yerevan","Tumanyan Street 5a, Yerevan",OK,44.52126967,40.1793234,Armenia,Yerevan,,Nominatim,Tumanyan,5a,,Tumanyan Street,,,,,"['A22290', 'A22291']"
2549,"Tumanyan street 5a, Երևան","Tumanyan Street 5a, Yerevan",OK,44.52126967,40.1793234,Armenia,Yerevan,,Nominatim,Tumanyan,5a,,Tumanyan Street,,,,,['A22292']
2550,"Tumanyan street 7, Երևան","Tumanyan Street 7, Yerevan",OK,44.52096016,40.1796186,Armenia,Yerevan,,Nominatim,Tumanyan,7,,Tumanyan Street,,,,,['A22293']
2551,"Tumanyan street 9a, Yerevan","Tumanyan Street 9a, Yerevan",OK,44.51979259,40.1797201,Armenia,Yerevan,,Nominatim,Tumanyan,9a,,Tumanyan Street,,,,,"['A22294', 'A22295']"
2552,"Tumanyan street, Vanadzor","Tumanyan Street, Vanadzor",OK,44.49732989,40.80730433,Armenia,Lori,Tumanyan,Nominatim,Tumanyan,,,Tumanyan Street,,,,,['A22296']
2553,"Tumanyan street, Yerevan","Tumanyan Street, Yerevan",OK,44.5138938,40.1849662,Armenia,Yerevan,,Nominatim,Tumanyan,,,Tumanyan Street,,,,,"['A22297', 'A22298', 'A22299', 'A22300', 'A22301', 'A22302', 'A22303', 'A22304', 'A22305', 'A22306', 'A22307', 'A22308', 'A22309', 'A22310', 'A22311', 'A22312', 'A22313', 'A22314', 'A22315', 'A22316', 'A22317', 'A22318', 'A22319', 'A22320', 'A22321', 'A22322', 'A22323', 'A22324', 'A22325', 'A22326', 'A22327', 'A22328', 'A22329', 'A22330', 'A22331', 'A22332', 'A22333', 'A22334', 'A22335', 'A22336', 'A22337', 'A22338', 'A22339', 'A22340', 'A22341', 'A22342', 'A22343', 'A22344', 'A22345', 'A22346', 'A22347', 'A22348', 'A22349', 'A22350', 'A22351', 'A22352', 'A22353', 'A22354', 'A22355', 'A22356', 'A22357', 'A22358', 'A22359', 'A22360', 'A22361', 'A22362', 'A22363', 'A22364', 'A22365', 'A22366', 'A22367', 'A22368', 'A22369', 'A22370', 'A22371', 'A22372', 'A22373', 'A22374', 'A22375', 'A22376', 'A22377', 'A22378', 'A22379', 'A22380', 'A22381', 'A22382', 'A22383', 'A22384', 'A22385', 'A22386', 'A22387', 'A22388', 'A22389', 'A22390', 'A22391', 'A22392', 'A22393', 'A22394', 'A22395', 'A22396', 'A22397', 'A22398', 'A22399', 'A22400', 'A22401', 'A22402', 'A22403', 'A22404', 'A22405', 'A22406', 'A22407', 'A22408', 'A22409', 'A22410', 'A22411', 'A22412', 'A22413', 'A22414', 'A22415', 'A22416', 'A22417', 'A22418', 'A22419', 'A22420', 'A22421', 'A22422', 'A22423', 'A22424', 'A22425', 'A22426', 'A22427', 'A22428', 'A22429', 'A22430', 'A22431', 'A22432', 'A22433', 'A22434', 'A22435', 'A22436', 'A22437', 'A22438', 'A22439', 'A22440', 'A22441', 'A22442', 'A22443', 'A22444', 'A22445', 'A22446', 'A22447', 'A22448', 'A22449', 'A22450', 'A22451', 'A22452', 'A22453', 'A22454', 'A22455', 'A22456', 'A22457', 'A22458', 'A22459', 'A22460', 'A22461', 'A22462', 'A22463', 'A22464', 'A22465', 'A22466', 'A22467', 'A22468', 'A22469', 'A22470', 'A22471', 'A22472', 'A22473', 'A22474', 'A22475', 'A22476', 'A22477', 'A22478', 'A22479', 'A22480', 'A22481', 'A22482', 'A22483', 'A22484', 'A22485', 'A22486', 'A22487', 'A22488', 'A22489', 'A22490', 'A22491', 'A22492', 'A22493', 'A22494', 'A22495', 'A22496', 'A22497', 'A22498', 'A22499', 'A22500', 'A22501', 'A22502', 'A22503', 'A22504', 'A22505', 'A22506', 'A22507', 'A22508', 'A22509', 'A22510', 'A22511', 'A22512', 'A22513', 'A22514', 'A22515', 'A22516', 'A22517', 'A22518', 'A22519', 'A22520', 'A22521', 'A22522', 'A22523', 'A22524', 'A22525', 'A22526', 'A22527', 'A22528', 'A22529', 'A22530', 'A22531', 'A22532', 'A22533', 'A22534', 'A22535', 'A22536', 'A22537', 'A22538', 'A22539', 'A22540', 'A22541', 'A22542', 'A22543', 'A22544', 'A22545', 'A22546', 'A22547', 'A22548', 'A22549', 'A22550', 'A22551', 'A22552', 'A22553', 'A22554', 'A22555', 'A22556', 'A22557', 'A22558', 'A22559', 'A22560', 'A22561', 'A22562', 'A22563', 'A22564', 'A22565', 'A22566', 'A22567', 'A22568', 'A22569', 'A22570', 'A22571', 'A22572', 'A22573', 'A22574', 'A22575', 'A22576', 'A22577', 'A22578', 'A22579', 'A22580', 'A22581', 'A22582', 'A22583', 'A22584', 'A22585', 'A22586', 'A22587', 'A22588', 'A22589', 'A22590', 'A22591', 'A22592', 'A22593', 'A22594', 'A22595', 'A22596', 'A22597', 'A22598', 'A22599', 'A22600', 'A22601', 'A22602', 'A22603', 'A22604', 'A22605', 'A22606', 'A22607', 'A22608', 'A22609', 'A22610', 'A22611', 'A22612', 'A22613', 'A22614', 'A22615', 'A22616', 'A22617', 'A22618', 'A22619', 'A22620', 'A22621', 'A22622', 'A22623', 'A22624', 'A22625', 'A22626', 'A22627', 'A22628', 'A22629', 'A22630', 'A22631', 'A22632', 'A22633', 'A22634', 'A22635', 'A22636', 'A22637', 'A22638', 'A22639', 'A22640', 'A22641', 'A22642', 'A22643', 'A22644', 'A22645', 'A22646', 'A22647', 'A22648', 'A22649', 'A22650', 'A22651', 'A22652', 'A22653', 'A22654', 'A22655', 'A22656', 'A22657', 'A22658', 'A22659', 'A22660', 'A22661', 'A22662', 'A22663', 'A22664', 'A22665', 'A22666', 'A22667', 'A22668', 'A22669', 'A22670', 'A22671', 'A22672', 'A22673', 'A22674', 'A22675', 'A22676', 'A22677', 'A22678', 'A22679', 'A22680', 'A22681', 'A22682', 'A22683', 'A22684', 'A22685', 'A22686', 'A22687', 'A22688', 'A22689', 'A22690', 'A22691', 'A22692', 'A22693', 'A22694', 'A22695', 'A22696', 'A22697', 'A22698', 'A22699', 'A22700', 'A22701', 'A22702', 'A22703', 'A22704', 'A22705', 'A22706', 'A22707', 'A22708', 'A22709', 'A22710', 'A22711', 'A22712', 'A22713', 'A22714', 'A22715', 'A22716', 'A22717', 'A22718', 'A22719', 'A22720', 'A22721', 'A22722', 'A22723', 'A22724', 'A22725', 'A22726', 'A22727', 'A22728', 'A22729', 'A22730', 'A22731', 'A22732', 'A22733', 'A22734', 'A22735', 'A22736', 'A22737', 'A22738', 'A22739', 'A22740', 'A22741', 'A22742', 'A22743', 'A22744', 'A22745', 'A22746', 'A22747', 'A22748', 'A22749', 'A22750', 'A22751', 'A22752', 'A22753', 'A22754', 'A22755', 'A22756', 'A22757', 'A22758', 'A22759', 'A22760', 'A22761', 'A22762', 'A22763', 'A22764', 'A22765', 'A22766', 'A22767', 'A22768', 'A22769', 'A22770', 'A22771', 'A22772', 'A22773', 'A22774', 'A22775', 'A22776', 'A22777', 'A22778', 'A22779', 'A22780', 'A22781', 'A22782', 'A22783', 'A22784', 'A22785', 'A22786', 'A22787', 'A22788', 'A22789', 'A22790', 'A22791', 'A22792', 'A22793', 'A22794', 'A22795', 'A22796', 'A22797', 'A22798', 'A22799', 'A22800', 'A22801', 'A22802', 'A22803', 'A22804', 'A22805', 'A22806', 'A22807', 'A22808', 'A22809', 'A22810', 'A22811', 'A22812', 'A22813', 'A22814', 'A22815', 'A22816', 'A22817', 'A22818', 'A22819', 'A22820', 'A22821', 'A22822', 'A22823', 'A22824', 'A22825', 'A22826', 'A22827', 'A22828', 'A22829', 'A22830', 'A22831', 'A22832', 'A22833', 'A22834', 'A22835', 'A22836', 'A22837', 'A22838', 'A22839', 'A22840', 'A22841', 'A22842', 'A22843', 'A22844', 'A22845', 'A22846', 'A22847', 'A22848', 'A22849', 'A22850', 'A22851', 'A22852', 'A22853', 'A22854', 'A22855', 'A22856', 'A22857', 'A22858', 'A22859', 'A22860', 'A22861', 'A22862', 'A22863', 'A22864', 'A22865', 'A22866', 'A22867', 'A22868', 'A22869', 'A22870', 'A22871', 'A22872', 'A22873', 'A22874', 'A22875', 'A22876', 'A22877', 'A22878', 'A22879', 'A22880', 'B5691', 'B5692', 'B5693', 'B5694', 'B5695', 'B5696', 'B5697', 'B5698', 'B5699', 'B5700', 'B5701', 'B5702', 'B5703', 'B5704', 'B5705', 'B5706', 'B5707', 'B5708', 'B5709', 'B5710', 'B5711', 'B5712', 'B5713', 'B5714', 'B5715', 'B5716', 'B5717', 'B5718', 'B5719', 'B5720', 'B5721', 'B5722', 'B5723', 'B5724', 'B5725', 'B5726', 'B5727', 'B5728', 'B5729', 'B5730', 'B5731', 'B5732', 'B5733', 'B5734', 'B5735', 'B5736', 'B5737', 'B5738', 'B5739', 'B5740', 'B5741', 'B5742', 'B5743', 'B5744', 'B5745', 'B5746', 'B5747', 'B5748', 'B5749', 'B5750', 'B5751', 'B5752', 'B5753', 'B5754', 'B5755', 'B5756', 'B5757', 'B5758', 'B5759', 'B5760', 'B5761', 'B5762', 'B5763', 'B5764', 'B5765', 'B5766', 'B5767', 'B5768', 'B5769', 'B5770', 'B5771', 'B5772', 'B5773', 'B5774', 'B5775', 'B5776', 'B5777', 'B5778', 'B5779', 'B5780', 'B5781', 'B5782', 'B5783', 'B5784', 'B5785', 'B5786', 'B5787', 'B5788', 'B5789', 'B5790', 'B5791', 'B5792', 'B5793', 'B5794', 'B5795', 'B5796', 'B5797', 'B5798', 'B5799', 'B5800', 'B5801', 'B5802', 'B5803', 'B5804', 'B5805', 'B5806', 'B5807', 'B5808']"
2554,"Tumanyan street, Երևան","Tumanyan Street, Yerevan",OK,44.5138938,40.1849662,Armenia,Yerevan,,Nominatim,Tumanyan,,,Tumanyan Street,,,,,"['A22881', 'A22882', 'A22883', 'A22884', 'A22885', 'A22886', 'A22887', 'A22888', 'A22889', 'A22890', 'A22891', 'A22892', 'A22893', 'A22894', 'A22895', 'A22896', 'A22897', 'A22898', 'A22899', 'A22900']"
2858,"Квартал Туманян 13/3, Ереван","Tumanyan Quarter 13/3, Yerevan",OK,44.574449,40.217196,Armenia,Yerevan,,Yandex,Tumanyan,13/3,Tumanyan District,,,,,,['A28723']
3187,"Улица Ованнеса Туманяна 13, Ереван","Hovhannes Tumanyan Street 13, Yerevan",OK,44.519526,40.180626,Armenia,Yerevan,,Yandex,Tumanyan,13,,Tumanyan Street,,,,,['A29230']
3188,"Улица Ованнеса Туманяна 21, Ереван","Hovhannes Tumanyan Street 21, Yerevan",OK,44.51631,40.182948,Armenia,Yerevan,,Yandex,Tumanyan,21,,Tumanyan Street,,,,,['A29231']
3189,"Улица Ованнеса Туманяна 32, Ереван","Hovhannes Tumanyan Street 32, Yerevan",OK,44.516652,40.183272,Armenia,Yerevan,,Yandex,Tumanyan,32,,Tumanyan Street,,,,,['A29232']
3190,"Улица Ованнеса Туманяна, Ереван","Hovhannes Tumanyan Street, Yerevan",OK,44.516571,40.18301,Armenia,Yerevan,,Yandex,Tumanyan,,,Tumanyan Street,,,,,['A29233']
3237,"Улица Туманяна, Yerevan","Tumanyan Street, Yerevan",OK,44.5138938,40.1849662,Armenia,Yerevan,,Nominatim,Tumanyan,,,Tumanyan Street,,,,,"['A29320', 'A29321']"
3747,"Թումանյան 2-րդ անցուղի, Երևան","Tumanyan 2nd Passage, Yerevan",OK,44.51951197,40.18223697,Armenia,Yerevan,,Nominatim,Tumanyan,,,Tumanyan Pass,,,,2nd,"['A30414', 'A30415']"
3748,"Թումանյան թաղամաս 4, Երևան","Tumanyan District 4, Yerevan",OK,44.57361107,40.2172294,Armenia,Yerevan,,Nominatim,Tumanyan,4,,,,Toumanyan Block,,,['A30416']
3749,"Թումանյան փողոց 11Ա, Երևան","11a Tumanyan Street, Yerevan",OK,44.51940922,40.18028535,Armenia,Yerevan,,Nominatim,Tumanyan,11a,,Tumanyan Street,,,,,"['A30417', 'A30418', 'B7542', 'B7543']"
3750,"Թումանյան փողոց 11ա, Երևան","11a Tumanyan Street, Yerevan",OK,44.51940922,40.18028535,Armenia,Yerevan,,Nominatim,Tumanyan,11a,,Tumanyan Street,,,,,"['A30419', 'A30420']"
3751,"Թումանյան փողոց 22, Yerevan","Tumanyan Street 22, Yerevan",OK,44.51889512,40.18163265,Armenia,Yerevan,,Nominatim,Tumanyan,22,,Tumanyan Street,,,,,['A30421']
3752,"Թումանյան փողոց 24, Երևան","24 Tumanyan Street, Yerevan",OK,44.51859672,40.18186585,Armenia,Yerevan,,Nominatim,Tumanyan,24,,Tumanyan Street,,,,,"['A30422', 'A30423', 'A30424']"
3753,"Թումանյան փողոց 31, Yerevan","31 Tumanyan Street, Yerevan",OK,44.5122241,40.1858786,Armenia,Yerevan,,Nominatim,Tumanyan,31,,Tumanyan Street,,,,,"['A30425', 'A30426']"
3754,"Թումանյան փողոց 40, Yerevan","40 Tumanyan Street, Yerevan",OK,44.51195337,40.18666985,Armenia,Yerevan,,Nominatim,Tumanyan,40,,Tumanyan Street,,,,,['A30427']
3755,"Թումանյան փողոց 40/28, Yerevan","Tumanyan Street 40/28, Yerevan",OK,44.512106,40.186951,Armenia,Yerevan,,Yandex,Tumanyan,40/28,,Tumanyan Street,,,,,['A30428']
3756,"Թումանյան փողոց 5Ա, Երևան","5a Tumanyan Street, Yerevan",OK,44.52126967,40.1793234,Armenia,Yerevan,,Nominatim,Tumanyan,5a,,Tumanyan Street,,,,,"['A30429', 'A30430', 'A30431', 'A30432', 'A30433', 'A30434', 'A30435', 'A30436', 'A30437', 'A30438', 'A30439', 'A30440', 'B7544', 'B7545', 'B7546', 'B7547', 'B7548', 'B7549', 'B7550', 'B7551', 'B7552', 'B7553', 'B7554', 'B7555', 'B7556', 'B7557', 'B7558']"
3757,"Թումանյան փողոց 78, Երևան","78 Tumanyan Street, Yerevan",OK,44.5138938,40.1849662,Armenia,Yerevan,,Nominatim,Tumanyan,78,,Tumanyan Street,,,,,['A30441']
3758,"Թումանյան փողոց 9Ա, Երևան","9a Tumanyan Street, Yerevan",OK,44.51979259,40.1797201,Armenia,Yerevan,,Nominatim,Tumanyan,9a,,Tumanyan Street,,,,,['A30442']
3759,"Թումանյան փողոց, Yerevan","Tumanyan Street, Yerevan",OK,44.5138938,40.1849662,Armenia,Yerevan,,Nominatim,Tumanyan,,,Tumanyan Street,,,,,"['A30443', 'A30444', 'A30445', 'A30446', 'A30447', 'A30448']"
3760,"Թումանյան փողոց, Երևան","Tumanyan Street, Yerevan",OK,44.5138938,40.1849662,Armenia,Yerevan,,Nominatim,Tumanyan,,,Tumanyan Street,,,,,"['A30449', 'A30450', 'A30451', 'A30452', 'A30453', 'A30454', 'A30455', 'A30456', 'A30457', 'A30458', 'A30459', 'A30460', 'A30461', 'A30462', 'A30463', 'A30464', 'A30465', 'A30466']"
3922,"Հովհաննես Թումանյան 1-ին նրբանցք 13, Սայաթ-Նովա","Hovhannes Tumanyan 1st Lane 13, Sayat-nova",OK,44.394463,40.069449,Armenia,Lori,Tumanyan,Yandex,Tumanyan,5,,Hovhannes Tumanyan,Sayat-Nova village,,1st Lane,,['A30801']
3923,"Հովհաննես Թումանյան 1-ին նրբանցք 2, Սայաթ-Նովա","Hovhannes Tumanyan 1st Lane 2, Sayat-nova",OK,44.395074,40.069325,Armenia,Lori,Tumanyan,Yandex,Tumanyan,3,,Hovhannes Tumanyan,Sayat-Nova village,,1st Lane,,['A30802']
3924,"Հովհաննես Թումանյան 1-ին նրբանցք 26, Սայաթ-Նովա","Hovhannes Tumanyan 1st Lane 26, Sayat-nova",OK,44.394643,40.06956,Armenia,Lori,Tumanyan,Yandex,Tumanyan,26,,Hovhannes Tumanyan,Sayat-Nova village,,1st Lane,,['A30803']
3925,"Հովհաննես Թումանյանի փողոց 1, Երևան","1 Hovhannes Tumanyan Street, Yerevan",OK,44.522509,40.178545,Armenia,Yerevan,,Yandex,Tumanyan,1,,Tumanyan Street,,,,,"['A30804', 'A30805', 'B7642', 'B7643', 'B7644']"
3926,"Հովհաննես Թումանյանի փողոց 11/4, Երևան","11/4 Hovhannes Tumanyan Street, Yerevan",OK,44.520416,40.180047,Armenia,Yerevan,,Yandex,Tumanyan,11/4,,Tumanyan Street,,,,,['A30806']
3927,"Հովհաննես Թումանյանի փողոց 20, Երևան","20 Hovhannes Tumanyan Street, Yerevan",OK,44.51967,40.181087,Armenia,Yerevan,,Yandex,Tumanyan,20,,Tumanyan Street,,,,,['A30807']
3928,"Հովհաննես Թումանյանի փողոց 40, Երևան","40 Hovhannes Tumanyan Street, Yerevan",OK,44.511873,40.186675,Armenia,Yerevan,,Yandex,Tumanyan,40,,Tumanyan Street,,,,,"['A30808', 'B7646']"
3929,"Հովհաննես Թումանյանի փողոց 9Ա, Երևան","9a Hovhannes Tumanyan Street, Yerevan",OK,44.519769,40.179702,Armenia,Yerevan,,Yandex,Tumanyan,9A,,Tumanyan Street,,,,,['A30809']
3930,"Հովհաննես Թումանյանի փողոց, Երևան","Hovhannes Tumanyan Street, Yerevan",OK,44.516571,40.18301,Armenia,Yerevan,,Yandex,Tumanyan,,,Tumanyan Street,,,,,"['A30810', 'A30811', 'A30812']"
5094,"Tumanyan street 18, Kapan","Tumanyan Street 18, Kapan",OK,46.3983422,39.20707985,Armenia,Lori,Tumanyan,Nominatim,Tumanyan,18,,Tumanyan Street,,,,,"['B5677', 'B5678']"
5095,"Tumanyan street 3, Yerevan","Tumanyan Street 3, Yerevan",OK,44.5221409,40.1788123,Armenia,Yerevan,,Nominatim,Tumanyan,3,,Tumanyan Street,,,,,['B5679']
5096,"Tumanyan street 4, Vanadzor","Tumanyan Street 4, Vanadzor",OK,44.49766105,40.8059978,Armenia,Lori,Tumanyan,Nominatim,Tumanyan,4,,Tumanyan Street,,,,,['B5684']
5097,"Tumanyan street 5, Yerevan","Tumanyan Street 5, Yerevan",OK,44.52145886,40.17923445,Armenia,Yerevan,,Nominatim,Tumanyan,5,,Tumanyan Street,,,,,"['B5687', 'B5688']"
5098,"Tumanyan street 9, Yerevan","Tumanyan Street 9, Yerevan",OK,44.52046368,40.1797894,Armenia,Yerevan,,Nominatim,Tumanyan,9,,Tumanyan Street,,,,,['B5689']
5099,"Tumanyan street, Gyumri","Tumanyan Street, Gyumri",OK,43.8497648,40.78311788,Armenia,Lori,Tumanyan,Nominatim,Tumanyan,,,Tumanyan Street,,,,,['B5690']
5100,"Tumanyan Street, Երևան","Tumanyan Street, Yerevan",OK,44.5138938,40.1849662,Armenia,Yerevan,,Nominatim,Tumanyan,,,Tumanyan Street,,,,,"['B5809', 'B5810']"
5379,"Թումանյան փողոց 110, Գյումրի","110 Tumanyan Street, Gyumri",OK,43.85223874,40.78273245,Armenia,Lori,Tumanyan,Nominatim,Tumanyan,110,,Tumanyan Street,,,,,['B7541']
5380,"Թումանյան փողոց 6Ա, Վանաձոր","6a Tumanyan Street, Vanadzor",OK,44.49732989,40.80730433,Armenia,Lori,Tumanyan,Nominatim,Tumanyan,6a,,Tumanyan Street,,,,,['B7559']
5429,"Հովհաննես Թումանյանի փողոց 11Ա, Երևան","11a Hovhannes Tumanyan Street, Yerevan",OK,44.51941,40.180295,Armenia,Yerevan,,Yandex,Tumanyan,11A,,Tumanyan Street,,,,,['B7645']
5430,"Հովհաննես Թումանյանի փողոց 5Ա, Երևան","5a Hovhannes Tumanyan Street, Yerevan",OK,44.521332,40.179461,Armenia,Yerevan,,Yandex,Tumanyan,5A,,Tumanyan Street,,,,,"['B7647', 'B7648']"
5431,"Հովհաննես Թումանյանի փողոց 6, Վանաձոր","6 Hovhannes Tumanyan Street, Vanadzor",OK,44.497634,40.806402,Armenia,Lori,Tumanyan,Yandex,Tumanyan,6,,Hovhannes Tumanyan Street,,,,,['B7649']
5432,"Հովհաննես Թումանյանի փողոց 9А, Վանաձոր","9a Hovhannes Tumanyan Street, Vanadzor",OK,44.495496,40.811084,Armenia,Lori,Tumanyan,Yandex,Tumanyan,9A,,Hovhannes Tumanyan Street,,,,,['B7650']
234,"Antarayin 1st blok 10, Tsaghkadzor","Antarayin 1st Blok 10, Tsaghkadzor",OK,44.71146,40.528081,Armenia,Kotayk,Tsaghkadzor,Yandex,Tsaghkadzor,10,,,,Antarayin 1st Blok,,,"['A2208', 'A2209', 'A2210', 'A2211', 'A2212', 'A2213', 'A2214', 'A2215', 'B516', 'B517', 'B518', 'B519', 'B520', 'B521', 'B522', 'B523', 'B524', 'B525', 'B526', 'B527', 'B528', 'B529', 'B530', 'B531', 'B532', 'B533', 'B534', 'B535', 'B536', 'B537', 'B538', 'B539', 'B540']"
235,"Antarayin 1st blok, Tsaghkadzor","Antarayin 1st Blok, Tsaghkadzor",OK,44.7760168,41.7107559,Georgia,Kotayk,Tsaghkadzor,Azure,Tsaghkadzor,,,Lizik'o Kavtaradzis Kucha,,,,,"['A2216', 'A2217', 'A2218', 'B541', 'B542', 'B543', 'B544', 'B545']"
1214,"Khachik Muradyan Street 3, Tsaghkadzor","Khachik Muradyan Street 3, Tsaghkadzor",OK,44.70791345,40.5271454,Armenia,Kotayk,Khachik,Nominatim,Tsaghkadzor,3,,Khachik Muradyan Street,,,,,"['A9473', 'A9474', 'A9475', 'A9476', 'A9477', 'A9478', 'B2315', 'B2316', 'B2317', 'B2318', 'B2319', 'B2320', 'B2321', 'B2322', 'B2323', 'B2324', 'B2325', 'B2326', 'B2327', 'B2328', 'B2329', 'B2330', 'B2331', 'B2332', 'B2333', 'B2334', 'B2335', 'B2336', 'B2337', 'B2338', 'B2339', 'B2340', 'B2341', 'B2342', 'B2343', 'B2344', 'B2345', 'B2346', 'B2347', 'B2348', 'B2349', 'B2350', 'B2351']"
1215,"Khachik Muradyan Street, Tsaghkadzor","Khachik Muradyan Street, Tsaghkadzor",OK,44.7060216,40.5285222,Armenia,Kotayk,Khachik,Nominatim,Tsaghkadzor,11,,Khachik Muradyan Street,,,,,"['A9479', 'A9480', 'A9481', 'A9482', 'A9483', 'B2352', 'B2353', 'B2354', 'B2355', 'B2356', 'B2357', 'B2358', 'B2359', 'B2360', 'B2361', 'B2362', 'B2363', 'B2364', 'B2365', 'B2366', 'B2367', 'B2368', 'B2369', 'B2370']"
2875,"Олимпийская улица, Цахкадзор","Olympic Street, Tsaghkadzor",OK,44.713284,40.530268,Armenia,Kotayk,Tsaghkadzor,Yandex,Tsaghkadzor,,,Olympic Street,,,,,"['A28754', 'B7207', 'B7208']"
3245,"Улица Хачика Мурадяна 5, Цахкадзор","5 Hachik Muradyan Street, Tsaghkadzor",OK,44.70840672,40.52813669,Armenia,Kotayk,Tsaghkadzor,Nominatim,Tsaghkadzor,5,,Khachik Muradyan Street,,,,,['A29333']
3391,"Ավետիք Իսահակյանի փողոց 7, Ծաղկաձոր","Avetik Isahakyan Street 7, Tsaghkadzor",OK,44.727585,40.530481,Armenia,Kotayk,Isahakyan,Yandex,Tsaghkadzor,7,,Avetik Isahakyan Street,,,,,"['A29632', 'B7412']"
3611,"Գրիգոր Մագիստրոսի փողոց 13, Ծաղկաձոր","13 Grigor Magistros Street, Tsaghkadzor",OK,44.71926718,40.53244179,Armenia,Kotayk,Tsaghkadzor,Nominatim,Tsaghkadzor,13,,Grigor Magistros Street,,,,,['A30042']
3799,"Խաչատուր Կեչարեցի փողոց, Ծաղկաձոր","Khachatur Kecharetsi Street, Tsaghkadzor",OK,44.72039,40.533805,Armenia,Kotayk,Tsaghkadzor,Yandex,Tsaghkadzor,,,Khachatur Kecharetsi Street,,,,,['A30548']
3801,"Խաչիկ Մուրադյանի փողոց 11, Ծաղկաձոր","11 Khachik Muradyan Street, Tsaghkadzor",OK,44.705891,40.528328,Armenia,Kotayk,Khachik,Yandex,Tsaghkadzor,11,,Khachik Muradyan Street,,,,,"['A30550', 'A30551', 'B7571', 'B7572', 'B7573', 'B7574', 'B7575', 'B7576', 'B7577']"
4581,"Օլիմպիադիայի փողոց 15, Ծաղկաձոր","15 Olympiadia Street, Tsaghkadzor",OK,44.711757,40.528123,Armenia,Kotayk,Tsaghkadzor,Yandex,Tsaghkadzor,15,,Olympic Street,,,,,"['A32566', 'A32567', 'B8127']"
4582,"Օլիմպիադիայի փողոց 8, Ծաղկաձոր","8 Olympiadia Street, Tsaghkadzor",OK,44.716805,40.528842,Armenia,Kotayk,Tsaghkadzor,Yandex,Tsaghkadzor,8,,Olympic Street,,,,,"['A32568', 'B8128', 'B8129', 'B8130', 'B8131', 'B8132', 'B8133', 'B8134', 'B8135', 'B8136', 'B8137']"
4583,"Օլիմպիադիայի փողոց, Ծաղկաձոր","Olympiadia Street, Tsaghkadzor",OK,44.713284,40.530268,Armenia,Kotayk,Tsaghkadzor,Yandex,Tsaghkadzor,,,Olympic Street,,,,,"['A32569', 'B8138', 'B8139', 'B8140']"
4829,"Isahakyan street, Ծաղկաձոր","Isahakyan Street, Tsaghkadzor",OK,44.72703896,40.5300668,Armenia,Kotayk,Isahakyan,Nominatim,Tsaghkadzor,,,Isahakyan Street,,,,,"['B2211', 'B2212']"
4847,"Kecharetsi St, Tsaghkadzor","Kecharetsi Street, Tsaghkadzor",OK,44.72039,40.533805,Armenia,Kotayk,Tsaghkadzor,Yandex,Tsaghkadzor,,,Khachatur Kecharetsi Street,,,,,"['B2291', 'B2292', 'B2293']"
4855,"Khachatur Kecharetsi Street 2, Tsaghkadzor","Khachatur Kecharetsi Street 2, Tsaghkadzor",OK,44.716239,40.532859,Armenia,Kotayk,Tsaghkadzor,Yandex,Tsaghkadzor,2,,Khachatur Kecharetsi Street,,,,,['B2308']
4856,"Khachatur Kecharetsi Street 8, Tsaghkadzor","Khachatur Kecharetsi Street 8, Tsaghkadzor",OK,44.718252,40.533263,Armenia,Kotayk,Tsaghkadzor,Yandex,Tsaghkadzor,8,,Khachatur Kecharetsi Street,,,,,"['B2309', 'B2310', 'B2311', 'B2312', 'B2313', 'B2314']"
4876,Kotayk › Hankavan,Kotayk › Hankavan,OK,44.4828511,40.6348022,Armenia,Kotayk,Hankavan,Nominatim,Tsaghkadzor,,,,Hankavan,,,,['B2908']
4985,"Orbeli Brothers street, Ծաղկաձոր","Orbeli Brothers Street, Tsaghkadzor",OK,44.72041014,40.53257654,Armenia,Kotayk,Tsaghkadzor,Nominatim,Tsaghkadzor,,,Orbeli Brothers Street,,,,,['B4386']
5067,"Tandzaghbyuri St, Tsaghkadzor","Tandzaghbyuri Street, Tsaghkadzor",OK,44.71986,40.531104,Armenia,Kotayk,Tsaghkadzor,Yandex,Tsaghkadzor,,,Tandzaghbyuri Street,,,,,['B5238']
5160,"Олимпийская улица 15, Цахкадзор","Olympic Street 15, Tsaghkadzor",OK,44.711757,40.528123,Armenia,Kotayk,Tsaghkadzor,Yandex,Tsaghkadzor,15,,Olympic Street,,,,,"['B7201', 'B7202']"
5161,"Олимпийская улица 8, Цахкадзор","Olympic Street 8, Tsaghkadzor",OK,44.716805,40.528842,Armenia,Kotayk,Tsaghkadzor,Yandex,Tsaghkadzor,8,,Olympic Street,,,,,"['B7203', 'B7204', 'B7205', 'B7206']"
5257,"Улица Тандзахбюри 2, Цахкадзор","Tandzaghbyuri Street 2, Tsaghkadzor",OK,44.716401,40.537513,Armenia,Kotayk,Tsaghkadzor,Yandex,Tsaghkadzor,2,,Tandzaghbyur Street,,,,,['B7341']
5265,"Улица Хачика Мурадяна, Цахкадзор","Hachik Muradyan Street, Tsaghkadzor",OK,44.70840672,40.52813669,Armenia,Kotayk,Tsaghkadzor,Nominatim,Tsaghkadzor,,,Khachik Muradyan Street,,,,,"['B7352', 'B7353', 'B7354', 'B7355']"
5295,"Անտառային 1-ին թաղամաս, Ծաղկաձոր","Forest District 1, Tsaghkadzor",OK,44.712314,40.527197,Armenia,Kotayk,Tsaghkadzor,Yandex,Tsaghkadzor,1,,,,Antarayin 1st Blok,,,"['B7397', 'B7398']"
5303,"Ավետիք Իսահակյանի փողոց 5/3, Ծաղկաձոր","Avetik Isahakyan Street 5/3, Tsaghkadzor",OK,44.729229,40.530652,Armenia,Kotayk,Isahakyan,Yandex,Tsaghkadzor,5/3,,Avetik Isahakyan Street,,,,,['B7411']
5389,"Խաչատուր Կեչառեցու փողոց, Ծաղկաձոր","Khachatur Kecharetsi Street, Tsaghkadzor",OK,44.72039,40.533805,Armenia,Kotayk,Tsaghkadzor,Yandex,Tsaghkadzor,,,Khachatur Kecharetsi Street,,,,,['B7570']
5390,"Խաչիկ Մուրադյանի փողոց 5, Ծաղկաձոր","5 Khachik Muradyan Street, Tsaghkadzor",OK,44.70840672,40.52813669,Armenia,Kotayk,Khachik,Nominatim,Tsaghkadzor,5,,Khachik Muradyan Street,,,,,"['B7578', 'B7579', 'B7580']"
5391,"Խաչիկ Մուրադյանի փողոց, Ծաղկաձոր","Khachik Muradyan Street, Tsaghkadzor",OK,44.707148,40.527842,Armenia,Kotayk,Khachik,Yandex,Tsaghkadzor,,,Khachik Muradyan Street,,,,,"['B7581', 'B7582', 'B7583', 'B7584', 'B7585', 'B7586']"
5394,"Ծաղկի հրապարակ 1, Ծաղկաձոր","Flower Square 1, Tsaghkadzor",OK,44.72034059,40.530903,Armenia,Kotayk,Tsaghkadzor,Nominatim,Tsaghkadzor,1,,,,,,,['B7589']
5655,"Օլիմպիադիայի փողոց 10, Ծաղկաձոր","10 Olympiadia Street, Tsaghkadzor",OK,44.716805,40.528842,Armenia,Kotayk,Tsaghkadzor,Yandex,Tsaghkadzor,8,,Olympic Street,,,,,['B8126']
5656,"Օրբելի եղբայրների փողոց, Ծաղկաձոր","Orbeli Brothers Street, Tsaghkadzor",OK,44.72041014,40.53257654,Armenia,Kotayk,Tsaghkadzor,Nominatim,Tsaghkadzor,,,Orbeli Brothers Street,,,,,['B8141']
4681,Aragatsotn › Talin,Aragatsotn › Talin,OK,43.8735993,40.3837069,Armenia,Aragatsotn,Aragats,Nominatim,Talin,,,,,,,,['B577']
922,"Garegin Nzhdeh street, Stepanavan","Garegin Nzhdeh Street, Stepanavan",OK,44.38436112,41.00902003,Armenia,Lori,Nzhdeh,Nominatim,Stepanavan,,,Garegin Nzhdeh Street,,,,,"['A7373', 'B1811']"
1433,Lorri › Stepanavan,Lorri › Stepanavan,OK,44.3845119,41.0112004,Armenia,Lori,Stepanavan,Nominatim,Stepanavan,,,,,,,,"['A12302', 'B3144', 'B3145', 'B3146', 'B3147', 'B3148', 'B3149', 'B3150', 'B3151', 'B3152']"
2392,"Telman Street 15, Stepanavan","Telman Street 15, Stepanavan",OK,44.3807809,41.01042921,Armenia,Lori,Stepanavan,Nominatim,Stepanavan,15,,Telman Street,,,,,['A20697']
3209,"Улица Прометевса 6/18, Степанаван","Prometevs Street 6/18, Stepanavan",OK,44.37747626,41.02121351,Armenia,Lori,Stepanavan,Nominatim,Stepanavan,6/18,,Prometevs Street,,,,,['A29276']
5354,"Եկեղեցու փողոց 4, Ստեփանավան","4 Church Street, Stepanavan",OK,44.388965,41.010837,Armenia,Lori,Stepanavan,Yandex,Stepanavan,4,,Ekeghecu Street,,,,,['B7505']
5421,"Հակոբ Մեղապարտի փողոց, Ստեփանավան","Hakob Meghapart Street, Stepanavan",OK,44.38654578,41.00921498,Armenia,Lori,Stepanavan,Nominatim,Stepanavan,,,Hakob Meghapart Street,,,,,['B7628']
5460,"Մեղապարտի փողոց 24, Ստեփանավան","Meghapart Street 24, Stepanavan",OK,44.38654578,41.00921498,Armenia,Lori,Stepanavan,Nominatim,Stepanavan,24,,Hakob Meghapart Street,,,,,['B7697']
5482,"Մյասնիկյան փողոց 2-րդ նրբանցք 10, Ստեփանավան","Myasnikyan Street 2nd Lane 10, Stepanavan",OK,44.376173,41.004958,Armenia,Lori,Myasnikyan,Yandex,Stepanavan,10,,Myasnikyan Street,,,2nd Lane,,['B7727']
5622,"Վիրահայոց փողոց 78Ա, Ստեփանավան","78a Virahayots Street, Stepanavan",OK,44.37857391,41.01728928,Armenia,Lori,Stepanavan,Nominatim,Stepanavan,78a,,Virahayots Street,,,,,['B8042']
5647,"Րաֆֆու փողոց 3, Ստեփանավան","3 Raffi Street, Stepanavan",OK,44.39301153,41.00566396,Armenia,Lori,Stepanavan,Nominatim,Stepanavan,3,,Raffi Street,,,,,['B8074']
4893,Lorri › Spitak,Lorri › Spitak,OK,44.2647711,40.8343352,Armenia,Lori,Spitak,Nominatim,Spitak,,,,,,,,['B3143']
143,"Adonts Street, Sisian","Adonts Street, Sisian",OK,46.02499783,39.52658921,Armenia,Syunik,Sis,Nominatim,Sisian,,,Adonts Street,,,,,['A756']
920,"Garegin Nzhdeh Street 5, Kasakh","Garegin Nzhdeh Street 5, Kasakh",OK,44.44704632,40.23543964,Armenia,,Nzhdeh,Nominatim,Sisian,5,,Garegin Nzhdeh Street,Kasakh,,,,['A7371']
5551,"Որոտան փողոց 5, Սիսիան","Vorotan Street 5, Sisian",OK,46.01781502,39.5187094,Armenia,Syunik,Vorotan,Nominatim,Sisian,5,,Vorotan Street,,,,,['B7894']
64,"2-й тупик 2-й улицы Верин Шенгавит, Ереван","2nd Dead End Of 2nd Street Verin Shengavit, Yerevan",OK,44.49572579,40.15390606,Armenia,Yerevan,,Nominatim,Shengavit,,Verin Shengavit,Verin Shengavit Street,,,2nd Deadlock,2nd,['A92']
65,"2-я улица Верин Шенгавита 7/2, Ереван","2nd Verin Shengavit Street 7/2, Yerevan",OK,44.492631,40.154279,Armenia,Yerevan,,Yandex,Shengavit,7/2,,Verin Shengavit Street,,,,2nd,['A93']
92,"5-я улица Неркин Шенгавита 21, Ереван","5th Street Nerkin Shengavit 21, Yerevan",OK,44.48495,40.13943,Armenia,Yerevan,,Yandex,Shengavit,21,,Mkrtich Sedrakyan Street,,,,,"['A144', 'A145', 'A146', 'A147']"
1850,"Nerqin Shengavit 11th street 1st deadlock 1, Երևան","Nerqin Shengavit 11th Street 1st Deadlock 1, Yerevan",OK,44.48193729,40.13622035,Armenia,Yerevan,,Nominatim,Shengavit,1,Nerqin Shengavit,Nerqin Shengavit Street,,,1st Deadlock,11th,['A15777']
1851,"Nerqin Shengavit 11th street 1st deadlock, Yerevan","Nerqin Shengavit 11th Street 1st Deadlock, Yerevan",OK,44.48142649,40.13948268,Armenia,Yerevan,,Nominatim,Shengavit,,Nerqin Shengavit,Nerqin Shengavit Street,,,1st Deadlock,11th,['A15778']
1852,"Nerqin Shengavit 11th street 1st deadlock, Երևան","Nerqin Shengavit 11th Street 1st Dead End, Yerevan",OK,44.48142649,40.13948268,Armenia,Yerevan,,Nominatim,Shengavit,,Nerqin Shengavit,Nerqin Shengavit Street,,,1st Deadlock,11th,['A15779']
1853,"Nerqin Shengavit 11th street 39/2, Yerevan","Nerqin Shengavit 11th Street 39/2, Yerevan",OK,44.48146769,40.13884965,Armenia,Yerevan,,Nominatim,Shengavit,39/2,Nerqin Shengavit,Nerqin Shengavit Street,,,,11th,['A15780']
1854,"Nerqin Shengavit 11th street, Yerevan","Nerqin Shengavit 11th Street, Yerevan",OK,44.47748608,40.13816936,Armenia,Yerevan,,Nominatim,Shengavit,,Nerqin Shengavit,Nerqin Shengavit Street,,,,11th,"['A15781', 'A15782', 'A15783', 'A15784', 'A15785']"
1855,"Nerqin Shengavit 13-th street 13, Yerevan","Nerqin Shengavit 13th Street 13, Yerevan",OK,44.487609,40.135762,Armenia,Yerevan,,Yandex,Shengavit,11,,Nerkin Shengavit Street,,,,13th,['A15786']
1856,"Nerqin Shengavit 14-street 2 nd lane, Yerevan","Nerqin Shengavit 14street 2 Nd Lane, Yerevan",OK,44.488732,40.139823,Armenia,Yerevan,,Yandex,Shengavit,14,,Norayr Karganyan Street,,,,,['A15787']
1857,"Nerqin Shengavit 4-th street, Երևան","Nerqin Shengavit 4th Street, Yerevan",OK,44.486459,40.146931,Armenia,Yerevan,,Yandex,Shengavit,,,Bagratunyats Street,,,4th Lane,,['A15788']
1858,"Nerqin Shengavit 5-th street 21, Yerevan","Nerqin Shengavit 5th Street 21, Yerevan",OK,44.48495,40.13943,Armenia,Yerevan,,Yandex,Shengavit,21,,Mkrtich Sedrakyan Street,,,,,['A15789']
1859,"Nerqin Shengavit 5-th street 25, Yerevan","Nerqin Shengavit 5th Street 25, Yerevan",OK,44.484995,40.139754,Armenia,Yerevan,,Yandex,Shengavit,25/1,,Mkrtich Sedrakyan Street,,,,,['A15790']
1860,"Nerqin Shengavit 5-th street, Yerevan","Nerqin Shengavit 5th Street, Yerevan",OK,44.485166,40.139658,Armenia,Yerevan,,Yandex,Shengavit,,,Mkrtich Sedrakyan Street,,,,,"['A15791', 'A15792', 'A15793']"
1861,"Nerqin Shengavit 9th street, Երևան","Nerqin Shengavit 9th Street, Yerevan",OK,44.4809908,40.14089132,Armenia,Yerevan,,Nominatim,Shengavit,,Nerqin Shengavit,Nerqin Shengavit Street,,,,9th,"['A15794', 'B3992', 'B3993']"
2270,"Shengavit street, Yerevan","Shengavit Street, Yerevan",OK,44.48316458,40.16171766,Armenia,Yerevan,,Nominatim,Shengavit,,Koghb,Shengavit Street,,,,,"['A20058', 'A20059', 'B4988']"
2674,"Verin Shengavit 10th street, Yerevan","Verin Shengavit 10th Street, Yerevan",OK,44.4894275,40.14785734,Armenia,Yerevan,,Nominatim,Shengavit,,3th Residential Area,Verin Shengavit Street,,,,10th,['A24151']
2675,"Verin Shengavit 11th street, Yerevan","Verin Shengavit 11th Street, Yerevan",OK,44.48966285,40.14914974,Armenia,Yerevan,,Nominatim,Shengavit,,3th Residential Area,Verin Shengavit Street,,,,11th,['A24152']
2676,"Verin Shengavit 1st street, Yerevan","Verin Shengavit 1st Street, Yerevan",OK,44.49222015,40.15304302,Armenia,Yerevan,,Nominatim,Shengavit,,Verin Shengavit,Verin Shengavit Street,,,,1st,"['A24153', 'A24154', 'A24155']"
2677,"Verin Shengavit 2nd street 2, Yerevan","Verin Shengavit 2nd Street 2, Yerevan",OK,44.49494376,40.153941,Armenia,Yerevan,,Nominatim,Shengavit,2,Verin Shengavit,Verin Shengavit Street,,,,2nd,['A24156']
2678,"Verin Shengavit 2nd street 25, Երևան","Verin Shengavit 2nd Street 25, Yerevan",OK,44.49270521,40.15410069,Armenia,Yerevan,,Nominatim,Shengavit,25,Verin Shengavit,Verin Shengavit Street,,,,2nd,['A24157']
2679,"Verin Shengavit 2nd street 36/2, Երևան","Verin Shengavit 2nd Street 36/2, Yerevan",OK,44.49270521,40.15410069,Armenia,Yerevan,,Nominatim,Shengavit,36/2,Verin Shengavit,Verin Shengavit Street,,,,2nd,['A24158']
2680,"Verin Shengavit 2nd street 7, Yerevan","Verin Shengavit 2nd Street 7, Yerevan",OK,44.49311879,40.1543173,Armenia,Yerevan,,Nominatim,Shengavit,7,Verin Shengavit,Verin Shengavit Street,,,,2nd,['A24159']
2681,"Verin Shengavit 2nd street, Yerevan","Verin Shengavit 2nd Street, Yerevan",OK,44.49270521,40.15410069,Armenia,Yerevan,,Nominatim,Shengavit,,Verin Shengavit,Verin Shengavit Street,,,,2nd,"['A24160', 'A24161', 'A24162', 'A24163', 'A24164', 'A24165', 'A24166', 'A24167', 'A24168', 'A24169', 'A24170', 'B6155']"
2682,"Verin Shengavit 2nd street, Երևան","Verin Shengavit 2nd Street, Yerevan",OK,44.49270521,40.15410069,Armenia,Yerevan,,Nominatim,Shengavit,,Verin Shengavit,Verin Shengavit Street,,,,2nd,['A24171']
2741,Yerevan › Shengavit,Yerevan › Shengavit,OK,44.4832273,40.1512122,Armenia,Yerevan,,Nominatim,Shengavit,,,,,,,,"['A27334', 'A27335', 'A27336', 'A27337', 'A27338', 'A27339', 'A27340', 'A27341', 'A27342', 'A27343', 'A27344', 'A27345', 'A27346', 'A27347', 'A27348', 'A27349', 'A27350', 'A27351', 'A27352', 'A27353', 'A27354', 'A27355', 'A27356', 'A27357', 'A27358', 'A27359', 'A27360', 'A27361', 'A27362', 'A27363', 'A27364', 'A27365', 'A27366', 'A27367', 'A27368', 'A27369', 'A27370', 'A27371', 'A27372', 'A27373', 'A27374', 'A27375', 'A27376', 'A27377', 'A27378', 'A27379', 'A27380', 'A27381', 'A27382', 'A27383', 'A27384', 'A27385', 'A27386', 'A27387', 'A27388', 'A27389', 'A27390', 'A27391', 'A27392', 'A27393', 'A27394', 'A27395', 'A27396', 'A27397', 'A27398', 'A27399', 'A27400', 'A27401', 'A27402', 'A27403', 'A27404', 'A27405', 'A27406', 'A27407', 'A27408', 'A27409', 'A27410', 'A27411', 'A27412', 'A27413', 'A27414', 'A27415', 'A27416', 'A27417', 'A27418', 'A27419', 'A27420', 'A27421', 'A27422', 'A27423', 'A27424', 'A27425', 'A27426', 'A27427', 'A27428', 'A27429', 'A27430', 'A27431', 'A27432', 'A27433', 'A27434', 'A27435', 'A27436', 'A27437', 'A27438', 'A27439', 'A27440', 'A27441', 'A27442', 'A27443', 'A27444', 'A27445', 'A27446', 'A27447', 'A27448', 'A27449', 'A27450', 'A27451', 'A27452', 'A27453', 'A27454', 'A27455', 'A27456', 'A27457', 'A27458', 'A27459', 'A27460', 'A27461', 'A27462', 'A27463', 'A27464', 'A27465', 'A27466', 'A27467', 'A27468', 'A27469', 'A27470', 'A27471', 'A27472', 'A27473', 'A27474', 'A27475', 'A27476', 'A27477', 'A27478', 'A27479', 'A27480', 'A27481', 'A27482', 'A27483', 'A27484', 'A27485', 'A27486', 'A27487', 'A27488', 'A27489', 'A27490', 'A27491', 'A27492', 'A27493', 'A27494', 'A27495', 'B6894', 'B6895', 'B6896', 'B6897', 'B6898', 'B6899', 'B6900', 'B6901', 'B6902', 'B6903', 'B6904', 'B6905', 'B6906', 'B6907', 'B6908', 'B6909', 'B6910', 'B6911', 'B6912', 'B6913', 'B6914', 'B6915', 'B6916', 'B6917', 'B6918', 'B6919', 'B6920']"
3256,"Улица Шенгавит, Ереван","Shengavit Street, Yerevan",OK,44.48316458,40.16171766,Armenia,Yerevan,,Nominatim,Shengavit,,Koghb,Shengavit Street,,,,,['A29347']
4196,"Ներքին Շենգավիթ 11-րդ փողոց, Երևան","Nerkin Shengavit 11th Street, Yerevan",OK,44.47748608,40.13816936,Armenia,Yerevan,,Nominatim,Shengavit,,Nerqin Shengavit,Nerqin Shengavit Street,,,,11th,['A31377']
4197,"Ներքին Շենգավիթի 11-րդ փողոց 39, Երևան","39, Nerkin Shengavit 11th Street, Yerevan",OK,44.482174,40.138872,Armenia,Yerevan,,Yandex,Shengavit,39,,Nerkin Shengavit Street,,,,11th,['A31378']
4198,"Ներքին Շենգավիթի 11-րդ փողոց, Երևան","11th Street, Inner Shengavit, Yerevan",OK,44.482498,40.139072,Armenia,Yerevan,,Yandex,Shengavit,,,Nerkin Shengavit Street,,,,11th,"['A31379', 'A31380']"
4199,"Ներքին Շենգավիթի 5-րդ փողոց 21, Երևան","21, Nerkin Shengavit 5th Street, Yerevan",OK,44.48495,40.13943,Armenia,Yerevan,,Yandex,Shengavit,21,,Mkrtich Sedrakyan Street,,,,,"['A31381', 'A31382']"
4200,"Ներքին Շենգավիթի 5-րդ փողոց 25/1, Երևան","25/1, Nerkin Shengavit 5th Street, Yerevan",OK,44.484995,40.139754,Armenia,Yerevan,,Yandex,Shengavit,25/1,,Mkrtich Sedrakyan Street,,,,,['A31383']
4252,"Շենգավիթ փողոց, Երևան","Shengavit Street, Yerevan",OK,44.48316458,40.16171766,Armenia,Yerevan,,Nominatim,Shengavit,,Koghb,Shengavit Street,,,,,['A31712']
4471,"Վերին Շենգավիթ 1ին փողոց, Ереван","Upper Shengavit 1st Street, Yerevan",OK,44.47629,40.123778,Armenia,Yerevan,,Yandex,Shengavit,,,Noragavit Street,,,,1st,['A32253']
4472,"Վերին Շենգավիթ 2րդ փողոց, Երևան","Upper Shengavit 2nd Street, Yerevan",OK,44.464603,40.148537,Armenia,Yerevan,,Yandex,Shengavit,2,,A. Popov Street,,,,,"['A32254', 'A32255', 'A32256']"
4473,"Վերին Շենգավիթի 10-րդ փողոց, Երևան","10th Upper Shengavit Street, Yerevan",OK,44.488975,40.148234,Armenia,Yerevan,,Yandex,Shengavit,,,Verin Shengavit Street,,,,10th,['A32257']
4474,"Վերին Շենգավիթի 2-րդ փողոց, Երևան","2nd Upper Shengavit Street, Yerevan",OK,44.492945,40.154072,Armenia,Yerevan,,Yandex,Shengavit,,,Verin Shengavit Street,,,,2nd,['A32258']
5517,"Ներքին Շենգավիթի 11-րդ փողոց 37/1, Երևան","37/1, Nerkin Shengavit 11th Street, Yerevan",OK,44.481914,40.137851,Armenia,Yerevan,,Yandex,Shengavit,37/1,,Nerkin Shengavit Street,,,,11th,['B7785']
933,Gegharkunik › Sevan,Gegharkunik › Sevan,OK,44.957243,40.5485209,Armenia,Gegharkunik,Gegharkunik,Nominatim,Sevan,,,,,,,,"['A7434', 'A7435', 'B1827', 'B1828', 'B1829', 'B1830', 'B1831', 'B1832', 'B1833', 'B1834', 'B1835', 'B1836', 'B1837', 'B1838', 'B1839', 'B1840', 'B1841']"
2249,"Sevan street, Yerevan","Sevan Street, Yerevan",OK,44.50386065,40.15257721,Armenia,Yerevan,,Nominatim,Sevan,,,Sevan Street,,,,,"['A19999', 'A20000', 'A20001', 'A20002', 'A20003', 'A20004', 'A20005', 'A20006', 'A20007', 'A20008', 'A20009', 'A20010', 'A20011', 'A20012', 'A20013', 'A20014', 'A20015', 'A20016', 'A20017', 'A20018', 'B4955', 'B4956', 'B4957', 'B4958', 'B4959']"
2250,"Sevani street, Yerevan","Sevani Street, Yerevan",OK,44.50386065,40.15257721,Armenia,Yerevan,,Nominatim,Sevan,,,Sevan Street,,,,,"['A20019', 'A20020', 'B4961']"
3163,"Улица Наирян 181, Севан","181 Nairyan Street, Sevan",OK,44.96417405,40.5504104,Armenia,Gegharkunik,,Nominatim,Sevan,181,,Nairyan Street,,,,,['A29179']
3164,"Улица Налбандяна 27, Севан","27 Nalbandyan Street, Sevan",OK,44.95172954,40.54939727,Armenia,Gegharkunik,Nalbandyan,Nominatim,Sevan,27,,Nalbandyan Street,,,,,['A29180']
3292,"Ազատության փողոց 21, Սևան","21 Azatutyan Street, Sevan",OK,44.98408883,40.55911019,Armenia,Gegharkunik,Azat,Nominatim,Sevan,21,,Azatutyun Street,Tsamakaberd,,,,['A29420']
3850,"Կարմիր Բանակի փողոց 54/33, Սևան","54/33 Red Army Street, Sevan",OK,44.939516,40.548519,Armenia,Gegharkunik,,Yandex,Sevan,54,,Karmir Bsnk Street,,,,,['A30652']
4160,"Նալբանդյան փողոց 63, Սևան","63 Nalbandyan Street, Sevan",OK,44.96403165,40.5509748,Armenia,Gegharkunik,Nalbandyan,Nominatim,Sevan,63,,Nalbandyan Street,,,,,['A31306']
4322,"Սայաթ Նովա փողոց 22, Սևան","Sayat Nova Street 22, Sevan",OK,44.95493283,40.5385912,Armenia,Gegharkunik,,Nominatim,Sevan,22,,Sayat Nova Street,,,,,['A31926']
4323,"Սայաթ Նովա փողոց, Սևան","Sayat Nova Street, Sevan",OK,44.95493283,40.5385912,Armenia,Gegharkunik,,Nominatim,Sevan,,,Sayat Nova Street,,,,,['A31927']
4332,"Սայաթ-Նովա փողոց 15, Սևան","Sayat-nova Street 15, Sevan",OK,44.9582433,40.5453989,Armenia,Gegharkunik,Sayat-Nova,Nominatim,Sevan,15,,Sayat Nova Street,,,,,['A31939']
4333,"Սայաթ-Նովա փողոց, Սևան","Sayat-nova Street, Sevan",OK,44.95493283,40.5385912,Armenia,Gegharkunik,Sayat-Nova,Nominatim,Sevan,,,Sayat Nova Street,,,,,['A31940']
4351,"Սարգիս Սևանեցու փողոց 21, Սևան","21 Sargis Sevanetsi Street, Sevan",OK,44.962746,40.542988,Armenia,Gegharkunik,,Yandex,Sevan,21,,Sargis Sevanetsi Street,,,,,['A31977']
4352,"Սարգիս Սևանեցու փողոց 23, Սևան","23 Sargis Sevanetsi Street, Sevan",OK,44.963662,40.543009,Armenia,Gegharkunik,,Yandex,Sevan,23,,Sargis Sevanetsi Street,,,,,['A31978']
4388,"Սևանի փողոց, Աբովյան","Sevan Street, Abovyan",OK,44.62776947,40.2857341,Armenia,Gegharkunik,Abovyan,Nominatim,Sevan,,,Sevan Street,,,,,"['A32074', 'B7987', 'B7988', 'B7989', 'B7990']"
4857,"Khaghagutyan street, Sevan town","Khaghagutyan Street, Sevan Town",OK,44.957293,40.548772,Armenia,Gegharkunik,,Yandex,Sevan,,,Khaghagutyan Street,,,,,"['B2374', 'B2375']"
4962,"Nairyan Str., Sevan","Nairyan Street., Sevan",OK,44.944618,40.546189,Armenia,Gegharkunik,,Yandex,Sevan,,,Nairyan Street,,,1st Lane,,['B3847']
4964,"Nairyan Street, Sevan town","Nairyan Street, Sevan Town",OK,44.9672702,40.5501765,Armenia,Gegharkunik,,Nominatim,Sevan,,,Nairyan Street,,,,,"['B3850', 'B3851', 'B3852', 'B3853', 'B3854']"
4967,"Nalbandyan street, Sevan town","Nalbandyan Street, Sevan Town",OK,44.95172954,40.54939727,Armenia,Gegharkunik,Nalbandyan,Nominatim,Sevan,,,Nalbandyan Street,,,,,"['B3863', 'B3864']"
5020,"Sayat Nova street 13/14, Sevan town","Sayat Nova Street 13/14, Sevan Town",OK,44.9576241,40.54767515,Armenia,Gegharkunik,,Nominatim,Sevan,13/14,,Sayat Nova Street,,,,,['B4930']
5125,"Yerevanyan highway, Սևան","Yerevanyan Highway, Sevan",OK,44.957293,40.548772,Armenia,Yerevan,,Yandex,Sevan,,,Yerevanyan Highway,,,,,['B6933']
5230,"Улица Микаэла Налбандяна 55, Севан","Mikael Nalbandyan Street 55, Sevan",OK,44.962099,40.55115,Armenia,Gegharkunik,Nalbandyan,Yandex,Sevan,55,,Mikayel Nalbandyan Street,,,,,['B7301']
5239,"Улица Наирян 176, Севан","176 Nairyan Street, Sevan",OK,44.96524715,40.54966145,Armenia,Gegharkunik,,Nominatim,Sevan,176,,Nairyan Street,,,,,['B7311']
5240,"Улица Налбандяна 42, Севан","42 Nalbandyan Street, Sevan",OK,44.95172954,40.54939727,Armenia,Gegharkunik,Nalbandyan,Nominatim,Sevan,42,,Nalbandyan Street,,,,,['B7312']
5241,"Улица Налбандяна 49, Севан","49 Nalbandyan Street, Sevan",OK,44.96015315,40.5505814,Armenia,Gegharkunik,Nalbandyan,Nominatim,Sevan,49,,Nalbandyan Street,,,,,['B7313']
5250,"Улица Саркиса Севанеци 19, Севан","19 Sarkis Sevanetsi Street, Sevan",OK,44.9628105,40.54358235,Armenia,Gegharkunik,,Nominatim,Sevan,19,,Sargis Sevanetsi Street,,,,,['B7334']
5340,"Գրիբոեդով փողոց 5, Սևան","5 Griboedov Street, Sevan",OK,44.960752,40.543934,Armenia,Gegharkunik,,Yandex,Sevan,5,,Griboyedov Street,,,,,['B7476']
5341,"Գրիբոեդով փողոց, Սևան","Griboedov Street, Sevan",OK,44.959665,40.544681,Armenia,Gegharkunik,,Yandex,Sevan,,,Griboyedov Street,,,,,['B7477']
5376,"Էներգետիկների փողոց, Սևան","Energetikneri Street, Sevan",OK,44.96560717,40.55127588,Armenia,Gegharkunik,,Nominatim,Sevan,,,Energetikneri Street,,,,,['B7537']
5474,"Միքայել Նալբանդյանի փողոց 38, Սևան","38 Mikael Nalbandyan Street, Sevan",OK,44.962324,40.550163,Armenia,Gegharkunik,Nalbandyan,Yandex,Sevan,40A,,Mikayel Nalbandyan Street,,,,,['B7719']
5510,"Նաիրյան փողոց 179, Սևան","179 Nairyan Street, Sevan",OK,44.9640008,40.5497042,Armenia,Gegharkunik,,Nominatim,Sevan,179,,Nairyan Street,,,,,['B7778']
5511,"Նալբանդյան փողոց, Սևան","Nalbandyan Street, Sevan",OK,44.95172954,40.54939727,Armenia,Gegharkunik,Nalbandyan,Nominatim,Sevan,,,Nalbandyan Street,,,,,['B7779']
5576,"Սայաթ-Նովա փողոց 20/25, Սևան","Sayat-nova Street 20/25, Sevan",OK,44.95635632,40.5447184,Armenia,Gegharkunik,Sayat-Nova,Nominatim,Sevan,20/25,,Sayat Nova Street,,,,,['B7968']
5584,"Սարգիս Սևանեցու փողոց 7, Սևան","7 Sargis Sevanetsi Street, Sevan",OK,44.962108,40.546949,Armenia,Gegharkunik,,Yandex,Sevan,7,,Sargis Sevanetsi Street,,,,,['B7977']
5585,"Սարգիս Սևանեցու փողոց, Սևան","Sargis Sevanetsi Street, Sevan",OK,44.959934,40.546662,Armenia,Gegharkunik,,Yandex,Sevan,,,Sargis Sevanetsi Street,,,,,['B7978']
5589,"Սևանի փողոց 2/1, Աբովյան","2/1 Sevan Street, Abovyan",OK,44.62223908,40.2737359,Armenia,Gegharkunik,Abovyan,Nominatim,Sevan,2/1,,Sevan Street,,,,,['B7984']
5590,"Սևանի փողոց 4/1, Աբովյան","4/1 Sevan Street, Abovyan",OK,44.6229382,40.27601495,Armenia,Gegharkunik,Abovyan,Nominatim,Sevan,4/1,,Sevan Street,,,,,"['B7985', 'B7986']"
5601,"Ստեփան Շահումյանի փողոց 18, Սևան","Stepan Shahumyan Street 18, Sevan",OK,44.93859,40.546175,Armenia,Gegharkunik,Shahumyan,Yandex,Sevan,18,,Stepan Shahumyan Street,,,,,['B8004']
93,"6-я улица Нубарашен, Ереван","6th Nubarashen Street, Yerevan",OK,44.55340699,40.09822333,Armenia,Yerevan,,Nominatim,Nubarashen,,,Nubarashen Street,,,,6th,['A148']
1939,"Nubarashen 11 street 1, Yerevan","Nubarashen 11 Street 1, Yerevan",OK,44.54878502,40.0850597,Armenia,Yerevan,,Nominatim,Nubarashen,1,,Nubarashen Street,,,,11th,['A17068']
1940,"Nubarashen 11 street 13, Yerevan","Nubarashen 11 Street 13, Yerevan",OK,44.54324655,40.08253785,Armenia,Yerevan,,Nominatim,Nubarashen,13,,Nubarashen Street,,,,11th,"['A17069', 'A17070']"
1941,"Nubarashen 11 street, Yerevan","Nubarashen 11 Street, Yerevan",OK,44.53346581,40.07551718,Armenia,Yerevan,,Nominatim,Nubarashen,11,,Nubarashen Street,,,,11th,['A17071']
2740,Yerevan › Nubarashen,Yerevan › Nubarashen,OK,44.5485399,40.089211,Armenia,Yerevan,,Nominatim,Nubarashen,,,,,,,,['A27333']
3269,"Шоссе Нубарашен 5/5, Ереван","Highway Nubarashen 5/5, Yerevan",OK,44.56438012,40.10835636,Armenia,Yerevan,,Nominatim,Nubarashen,5/5,,Artashat-sevan Highway,,,,,"['A29365', 'A29366', 'A29367']"
4239,"Նուբարաշեն 2րդ փողոց, Երևան","Nubarashen 2nd Street, Yerevan",OK,44.548677,40.091924,Armenia,Yerevan,,Yandex,Nubarashen,2,The Administrative District Of Nubarashen,Nubarashen Street,,,,,"['A31697', 'A31698']"
4240,"Նուբարաշեն խճուղի, Երևան","Nubarashen Highway, Yerevan",OK,44.5517901,40.101747,Armenia,Yerevan,,Nominatim,Nubarashen,,,Artashat-sevan Highway,,,,,['A31699']
4241,"Նուբարաշեն վարչական շրջան, Երևան","Nubarashen Administrative District, Yerevan",OK,44.54988,40.089565,Armenia,Yerevan,,Yandex,Nubarashen,,The Administrative District Of Nubarashen,,,,,,['A31700']
4242,"Նուբարաշենի Բ10 թաղամաս, Երևան","Nubarashen B10 District, Yerevan",OK,44.546018,40.086425,Armenia,Yerevan,,Yandex,Nubarashen,1/2,B10 Quarter Nubarashen,,,,,,['A31701']
5070,Tavush › Noyemberyan,Tavush › Noyemberyan,OK,44.9965125,41.1719613,Armenia,Tavush,Tavush,Nominatim,Noyemberyan,,,,,,,,"['B5298', 'B5299']"
2739,Yerevan › Nork-Marash,Yerevan › Nork-marash,OK,44.5405065,40.1812999,Armenia,Yerevan,,Nominatim,Nork-Marash,,Norq Marash,Nork-marash,,,,,"['A27314', 'A27315', 'A27316', 'A27317', 'A27318', 'A27319', 'A27320', 'A27321', 'A27322', 'A27323', 'A27324', 'A27325', 'A27326', 'A27327', 'A27328', 'A27329', 'A27330', 'A27331', 'A27332', 'B6891', 'B6892', 'B6893']"
5526,"Նորք-Մարաշ վարչական շրջան 32/1, Երևան","Nork-marash Administrative District 32/1, Yerevan",OK,44.54388,40.183134,Armenia,Yerevan,,Yandex,Nork-Marash,32/1,The Administrative District Of Nork-marash,,,,,,['B7848']
2700,"Vilnyus street, Nor Nork 9th massive","Vilnyus Street, Nor Nork 9th Massive",OK,44.56335168,40.17331861,Armenia,Yerevan,,Nominatim,Nor Nork,,Nor Nork 9th Massive,Vilnyus Street,,,,,"['A24279', 'A24280', 'B6174', 'B6175', 'B6176']"
2738,Yerevan › Nor Nork,Yerevan › Nor Nork,OK,44.567898,40.1882269,Armenia,Yerevan,,Nominatim,Nor Nork,,Nor Norq,,,,,,"['A27166', 'A27167', 'A27168', 'A27169', 'A27170', 'A27171', 'A27172', 'A27173', 'A27174', 'A27175', 'A27176', 'A27177', 'A27178', 'A27179', 'A27180', 'A27181', 'A27182', 'A27183', 'A27184', 'A27185', 'A27186', 'A27187', 'A27188', 'A27189', 'A27190', 'A27191', 'A27192', 'A27193', 'A27194', 'A27195', 'A27196', 'A27197', 'A27198', 'A27199', 'A27200', 'A27201', 'A27202', 'A27203', 'A27204', 'A27205', 'A27206', 'A27207', 'A27208', 'A27209', 'A27210', 'A27211', 'A27212', 'A27213', 'A27214', 'A27215', 'A27216', 'A27217', 'A27218', 'A27219', 'A27220', 'A27221', 'A27222', 'A27223', 'A27224', 'A27225', 'A27226', 'A27227', 'A27228', 'A27229', 'A27230', 'A27231', 'A27232', 'A27233', 'A27234', 'A27235', 'A27236', 'A27237', 'A27238', 'A27239', 'A27240', 'A27241', 'A27242', 'A27243', 'A27244', 'A27245', 'A27246', 'A27247', 'A27248', 'A27249', 'A27250', 'A27251', 'A27252', 'A27253', 'A27254', 'A27255', 'A27256', 'A27257', 'A27258', 'A27259', 'A27260', 'A27261', 'A27262', 'A27263', 'A27264', 'A27265', 'A27266', 'A27267', 'A27268', 'A27269', 'A27270', 'A27271', 'A27272', 'A27273', 'A27274', 'A27275', 'A27276', 'A27277', 'A27278', 'A27279', 'A27280', 'A27281', 'A27282', 'A27283', 'A27284', 'A27285', 'A27286', 'A27287', 'A27288', 'A27289', 'A27290', 'A27291', 'A27292', 'A27293', 'A27294', 'A27295', 'A27296', 'A27297', 'A27298', 'A27299', 'A27300', 'A27301', 'A27302', 'A27303', 'A27304', 'A27305', 'A27306', 'A27307', 'A27308', 'A27309', 'A27310', 'A27311', 'A27312', 'A27313', 'B6869', 'B6870', 'B6871', 'B6872', 'B6873', 'B6874', 'B6875', 'B6876', 'B6877', 'B6878', 'B6879', 'B6880', 'B6881', 'B6882', 'B6883', 'B6884', 'B6885', 'B6886', 'B6887', 'B6888', 'B6889', 'B6890']"
4475,"Վիլնյուսի փողոց 25/2, Նոր Նորքի 9-րդ զանգված","Vilnius Street 25/2, Nor Nork 9th District",OK,44.56664916,40.1726784,Armenia,Yerevan,,Nominatim,Nor Nork,25/2(20),Nor Nork 9th Massive,Vilnyus Street,,,,,['A32259']
4478,"Վիլնյուսի փողոց 7, Նոր Նորքի 9-րդ զանգված","Vilnius Street 7, Nor Nork 9th District",OK,44.56059195,40.16985265,Armenia,Yerevan,,Nominatim,Nor Nork,35/7,Nor Nork 9th Massive,Vilnyus Street,,,,,['A32262']
4480,"Վիլնյուսի փողոց, Նոր Նորքի 9-րդ զանգված","Vilnius Street, Nor Nork 9th District",OK,44.56335168,40.17331861,Armenia,Yerevan,,Nominatim,Nor Nork,,Nor Nork 9th Massive,Vilnyus Street,,,,,"['A32269', 'A32270', 'A32271', 'A32272']"
1374,Kotayk › Argel,Kotayk › Argel,OK,44.5995466,40.3819799,Armenia,Kotayk,Argel,Nominatim,Nor Hachn,,,,Argel,,,,"['A11886', 'B2899']"
4878,Kotayk › Kanakeravan,Kotayk › Kanakeravan,OK,44.5338893,40.2477264,Armenia,Kotayk,Kanakeravan,Nominatim,Nor Hachn,,,,Kanakeravan,,,,['B2938']
4880,Kotayk › Nor Geghi,Kotayk › Nor Geghi,OK,44.5780427,40.3170555,Armenia,Kotayk,Nor Geghi,Nominatim,Nor Hachn,,,,Nor Geghi,,,,['B2941']
5246,"Улица Пютагораса, Канакераван","Pythagoras Street, Kanakeravan",OK,44.534564,40.245583,Armenia,,Kanakeravan,Yandex,Nor Hachn,,,Pythagoras Street,Village of Kanakeravan,,,,['B7330']
47,"23-я улица, Зовуни","23rd Street, Zovuni",OK,44.49426024,40.23518548,Armenia,,Zovuni,Nominatim,Nairi,,,Armenia Street,Zovuni,,,23rd,['A67']
48,"24-я улица, Зовуни","24th Street, Zovuni",OK,44.50117944,40.24616365,Armenia,,Zovuni,Nominatim,Nairi,24,,Zovuni Street,Zovuni,,,16th,['A68']
1380,Kotayk › Zovuni,Kotayk › Zovuni,OK,44.5070456,40.2351368,Armenia,Kotayk,Zovuni,Nominatim,Nairi,,,,Zovuni,,,,"['A11904', 'B3069', 'B3070', 'B3071']"
1765,"Nairi Zaryan 1-st lane, Yerevan","Nairi Zaryan 1st Lane, Yerevan",OK,44.5071589,40.20586377,Armenia,Yerevan,,Nominatim,Nairi,,,Nairi Zaryan Street,,,1st Lane,,['A14879']
1766,"Nairi Zaryan St 74, Yerevan","Nairi Zaryan Street 74, Yerevan",OK,44.5171299,40.2036126,Armenia,Yerevan,,Nominatim,Nairi,74b,,Nairi Zaryan Street,,,,,['A14880']
1767,"Nairi Zaryan St, Yerevan","Nairi Zaryan Street, Yerevan",OK,44.51117616,40.20457414,Armenia,Yerevan,,Nominatim,Nairi,,,Nairi Zaryan Street,,,,,"['A14881', 'A14882', 'A14883']"
1768,"Nairi Zaryan street 106, Yerevan","Nairi Zaryan Street 106, Yerevan",OK,44.51973697,40.20347435,Armenia,Yerevan,,Nominatim,Nairi,106,,Nairi Zaryan Street,,,,,['A14884']
1769,"Nairi Zaryan street 12, Երևան","Nairi Zaryan Street 12, Yerevan",OK,44.50817638,40.20495795,Armenia,Yerevan,,Nominatim,Nairi,12/1,,Nairi Zaryan Street,,,,,['A14885']
1770,"Nairi Zaryan street 21, Yerevan","Nairi Zaryan Street 21, Yerevan",OK,44.51443435,40.2045553,Armenia,Yerevan,,Nominatim,Nairi,21,,Nairi Zaryan Street,,,,,"['A14886', 'A14887', 'A14888', 'A14889']"
1771,"Nairi Zaryan street 4, Yerevan","Nairi Zaryan Street 4, Yerevan",OK,44.50747864,40.20521425,Armenia,Yerevan,,Nominatim,Nairi,4,,Nairi Zaryan Street,,,,,['A14890']
1772,"Nairi Zaryan street 74a, Yerevan","Nairi Zaryan Street 74a, Yerevan",OK,44.5163802,40.2036317,Armenia,Yerevan,,Nominatim,Nairi,74a,,Nairi Zaryan Street,,,,,"['A14891', 'A14892', 'B3796']"
1773,"Nairi Zaryan street 74b, Yerevan","Nairi Zaryan Street 74b, Yerevan",OK,44.5171299,40.2036126,Armenia,Yerevan,,Nominatim,Nairi,74b,,Nairi Zaryan Street,,,,,"['A14893', 'A14894']"
1774,"Nairi Zaryan street, Yerevan","Nairi Zaryan Street, Yerevan",OK,44.51117616,40.20457414,Armenia,Yerevan,,Nominatim,Nairi,,,Nairi Zaryan Street,,,,,"['A14895', 'A14896', 'A14897', 'A14898', 'A14899', 'A14900', 'A14901', 'A14902', 'A14903', 'A14904', 'A14905', 'A14906', 'A14907', 'A14908', 'A14909', 'A14910', 'A14911', 'A14912', 'A14913', 'A14914', 'A14915', 'A14916', 'A14917', 'A14918', 'A14919', 'A14920', 'A14921', 'A14922', 'A14923', 'A14924', 'A14925', 'A14926', 'A14927', 'A14928', 'A14929', 'A14930', 'A14931', 'A14932', 'A14933', 'A14934', 'A14935', 'A14936', 'A14937', 'A14938', 'A14939', 'A14940', 'A14941', 'A14942', 'A14943', 'A14944', 'A14945', 'A14946', 'A14947', 'A14948', 'A14949', 'A14950', 'A14951', 'A14952', 'A14953', 'A14954', 'A14955', 'A14956', 'A14957', 'A14958', 'A14959', 'A14960', 'A14961', 'A14962', 'A14963', 'A14964', 'A14965', 'A14966', 'A14967', 'A14968', 'A14969', 'A14970', 'A14971', 'A14972', 'A14973', 'A14974', 'A14975', 'A14976', 'A14977', 'A14978', 'A14979', 'A14980', 'A14981', 'A14982', 'A14983', 'A14984', 'A14985', 'A14986', 'A14987', 'A14988', 'A14989', 'A14990', 'A14991', 'A14992', 'A14993', 'A14994', 'A14995', 'A14996', 'A14997', 'A14998', 'A14999', 'A15000', 'A15001', 'A15002', 'A15003', 'A15004', 'A15005', 'A15006', 'A15007', 'A15008', 'A15009', 'A15010', 'A15011', 'A15012', 'A15013', 'A15014', 'A15015', 'A15016', 'A15017', 'A15018', 'A15019', 'A15020', 'A15021', 'A15022', 'A15023', 'A15024', 'A15025', 'A15026', 'A15027', 'A15028', 'A15029', 'A15030', 'A15031', 'A15032', 'A15033', 'A15034', 'A15035', 'A15036', 'A15037', 'A15038', 'A15039', 'A15040', 'A15041', 'A15042', 'A15043', 'A15044', 'A15045', 'A15046', 'A15047', 'A15048', 'A15049', 'A15050', 'A15051', 'A15052', 'A15053', 'A15054', 'A15055', 'A15056', 'A15057', 'A15058', 'A15059', 'A15060', 'A15061', 'A15062', 'A15063', 'A15064', 'A15065', 'A15066', 'A15067', 'A15068', 'A15069', 'A15070', 'A15071', 'A15072', 'A15073', 'A15074', 'A15075', 'A15076', 'A15077', 'A15078', 'A15079', 'A15080', 'A15081', 'A15082', 'B3797', 'B3798', 'B3799', 'B3800', 'B3801', 'B3802', 'B3803', 'B3804', 'B3805', 'B3806', 'B3807', 'B3808', 'B3809', 'B3810', 'B3811', 'B3812', 'B3813', 'B3814', 'B3815', 'B3816', 'B3817', 'B3818', 'B3819', 'B3820', 'B3821', 'B3822', 'B3823', 'B3824', 'B3825', 'B3826', 'B3827', 'B3828', 'B3829', 'B3830', 'B3831', 'B3832', 'B3833', 'B3834', 'B3835', 'B3836', 'B3837', 'B3838', 'B3839', 'B3840', 'B3841', 'B3842', 'B3843', 'B3844', 'B3845', 'B3846']"
1775,"Nairi Zaryan street, Երևան","Nairi Zaryan Street, Yerevan",OK,44.51117616,40.20457414,Armenia,Yerevan,,Nominatim,Nairi,,,Nairi Zaryan Street,,,,,"['A15083', 'A15084', 'A15085', 'A15086', 'A15088', 'A15089', 'A15090']"
1776,"Nairi Zaryan Street, Երևան","Nairi Zaryan Street, Yerevan",OK,44.51117616,40.20457414,Armenia,Yerevan,,Nominatim,Nairi,,,Nairi Zaryan Street,,,,,['A15087']
3159,"Улица Наири Зарьяна 74, Ереван","74 Nairi Zaryana Street, Yerevan",OK,44.5171299,40.2036126,Armenia,Yerevan,,Nominatim,Nairi,74b,,Nairi Zaryan Street,,,,,['A29174']
3160,"Улица Наири Зарьяна 74Б, Ереван","Nairi Zaryan Street 74b, Yerevan",OK,44.5171299,40.2036126,Armenia,Yerevan,,Nominatim,Nairi,74b,,Nairi Zaryan Street,,,,,['A29175']
3161,"Улица Наири Зарьяна, Ереван","Nairi Zaryana Street, Yerevan",OK,44.51002673,40.20475216,Armenia,Yerevan,,Nominatim,Nairi,,,Nairi Zaryan Street,,,,,"['A29176', 'A29177']"
3162,"Улица Наири Заряна 38/1, Ереван","38/1 Nairi Zaryana Street, Yerevan",OK,44.51117616,40.20457414,Armenia,Yerevan,,Nominatim,Nairi,38/1,,Nairi Zaryan Street,,,,,['A29178']
3720,"Զովունի 6 փողոց 5, Զովունի","5 Zovuni 6th Street, Zovuni",OK,44.50759644,40.23546815,Armenia,,Zovuni,Nominatim,Nairi,6,,Zovuni Street,Zovuni,,,,['A30353']
4151,"Նաիրի Զարյան փողոց 106/5, Երևան","Nairi Zaryan Street 106/5, Yerevan",OK,44.51117616,40.20457414,Armenia,Yerevan,,Nominatim,Nairi,106/5,,Nairi Zaryan Street,,,,,['A31274']
4152,"Նաիրի Զարյան փողոց 34բ, Երևան","34b Nairi Zaryan Street, Yerevan",OK,44.51117616,40.20457414,Armenia,Yerevan,,Nominatim,Nairi,34b,,Nairi Zaryan Street,,,,,['A31275']
4153,"Նաիրի Զարյան փողոց 74Ա, Երևան","74a Nairi Zaryan Street, Yerevan",OK,44.5163802,40.2036317,Armenia,Yerevan,,Nominatim,Nairi,74a,,Nairi Zaryan Street,,,,,"['A31276', 'A31277', 'A31278', 'A31279']"
4154,"Նաիրի Զարյան փողոց 74Բ, Երևան","74b Nairi Zaryan Street, Yerevan",OK,44.5171299,40.2036126,Armenia,Yerevan,,Nominatim,Nairi,74b,,Nairi Zaryan Street,,,,,"['A31280', 'B7777']"
4155,"Նաիրի Զարյան փողոց, Երևան","Nairi Zaryan Street, Yerevan",OK,44.51117616,40.20457414,Armenia,Yerevan,,Nominatim,Nairi,,,Nairi Zaryan Street,,,,,"['A31281', 'A31282', 'A31283', 'A31284', 'A31285', 'A31286', 'A31287', 'A31288', 'A31289', 'A31290', 'A31291', 'A31292', 'A31293', 'A31294', 'A31295', 'A31296', 'A31297', 'A31298', 'A31299', 'A31300', 'A31301']"
4596,"11-я улица 89, Зовуни","11th Street 89, Zovuni",OK,44.50797299,40.23044465,Armenia,,Zovuni,Nominatim,Nairi,89,,Zovuni Street,Zovuni,,,11th,['B1']
4616,"38-րդ փողոց 23, Զովունի","23 38th Street, Zovuni",OK,44.50201434,40.239151,Armenia,,Zovuni,Nominatim,Nairi,23,,Street Zovuni,Zovuni,,,38th,['B31']
4628,"41-րդ փողոց 23, Զովունի","23 41st Street, Zovuni",OK,44.49426024,40.23518548,Armenia,,Zovuni,Nominatim,Nairi,23,,Armenia Street,Zovuni,,,23rd,['B45']
4686,"Aram Martirosyan street, Kasakh","Aram Martirosyan Street, Kasakh",OK,44.45465168,40.2316487,Armenia,,Kasakh,Nominatim,Nairi,,,Aram Martirosyan Street,Kasakh,,,,['B629']
4846,"Kasakh Street 10, Khoronk","Kasakh Street 10, Khoronk",OK,44.24486027,40.1333053,Armenia,,Kasakh,Nominatim,Nairi,10,,Kasakh Street,Khoronk,,,,['B2274']
4883,Kotayk › Proshyan,Kotayk › Proshyan,OK,44.4193599,40.2482864,Armenia,Kotayk,Proshyan,Nominatim,Nairi,,,,Proshyan,,,,"['B2944', 'B2945', 'B2946']"
4958,"Nairi street 27, Parakar","Nairi Street 27, Parakar",OK,44.4004253,40.1636963,Armenia,Kotayk,,Nominatim,Nairi,27,,Nairi Street,Parakar,,,,['B3790']
4959,"Nairi street 31, Parakar","Nairi Street 31, Parakar",OK,44.40021896,40.1635896,Armenia,Kotayk,,Nominatim,Nairi,31,,Nairi Street,Parakar,,,,"['B3791', 'B3792']"
4960,"Nairi street 5, Vanadzor","Nairi Street 5, Vanadzor",OK,44.50850292,40.7931769,Armenia,Kotayk,,Nominatim,Nairi,5,Lager,Nairi Street,,,,,"['B3793', 'B3794']"
4961,"Nairi Zaryan street 17, Yerevan","Nairi Zaryan Street 17, Yerevan",OK,44.51227853,40.20467005,Armenia,Yerevan,,Nominatim,Nairi,17,,Nairi Zaryan Street,,,,,['B3795']
5135,"Zovuni 38 street, Zovuni","Zovuni 38 Street, Zovuni",OK,44.50201434,40.239151,Armenia,,Zovuni,Nominatim,Nairi,38,,Street Zovuni,Zovuni,,,38th,['B7172']
5136,"Zovuni 39 street, Zovuni","Zovuni 39 Street, Zovuni",OK,44.50457302,40.23420379,Armenia,,Zovuni,Nominatim,Nairi,39,,Zovuni Street,Zovuni,,,,['B7173']
5238,"Улица Наири Зарьяна 15, Ереван","15 Nairi Zaryana Street, Yerevan",OK,44.51155555,40.20470995,Armenia,Yerevan,,Nominatim,Nairi,15,,Nairi Zaryan Street,,,,,['B7310']
5263,"Улица Уренинер 8, Касах","Ureniner Street 8, Kasakh",OK,44.45283225,40.22701335,Armenia,,Kasakh,Nominatim,Nairi,8,,Ureninery Street,Kasakh,,,,['B7350']
5374,"Զորավար Անդրանիկի փողոց 6, Պռոշյան","6 Zoravar Andranik Street, Proshyan",OK,44.42060265,40.24883108,Armenia,,Proshyan,Nominatim,Nairi,6,,Zoravar Andranik Street,Proshyan,,,,['B7531']
5508,"Նաիրի Զարյան փողոց 1, Երևան","1 Nairi Zaryan Street, Yerevan",OK,44.51567942,40.20391115,Armenia,Yerevan,,Nominatim,Nairi,72/1,,Nairi Zaryan Street,,,,,['B7774']
5509,"Նաիրի Զարյան փողոց 72/6, Երևան","72/6 Nairi Zaryan Street, Yerevan",OK,44.5161038,40.2041168,Armenia,Yerevan,,Nominatim,Nairi,72/6,,Nairi Zaryan Street,,,,,"['B7775', 'B7776']"
5562,"Պռոշյան փողոց, Աշտարակ","Proshyan Street, Ashtarak",OK,44.3600279,40.30091315,Armenia,,Proshyan,Nominatim,Nairi,,,,,,,,['B7948']
5586,"Սեդրակ Ջալալյան փողոց 2, Քասախ","2 Sedrak Jalalyan Street, Kasakh",OK,44.45241545,40.23367305,Armenia,,Kasakh,Nominatim,Nairi,2,,Sedrak Jalalyan Street,Kasakh,,,,['B7981']
5587,"Սեդրակ Ջալալյանի փողոց 10, Քասախ","10 Sedrak Jalalyan Street, Kasakh",OK,44.45333655,40.2355783,Armenia,,Kasakh,Nominatim,Nairi,10,,Sedrak Jalalyan Street,Kasakh,,,,['B7982']
5612,"Վազգեն Սարգսյանի փողոց 7, Քասախ","7 Vazgen Sargsyan Street, Kasakh",OK,44.45059363,40.23503205,Armenia,,Kasakh,Nominatim,Nairi,7,,Vazgen Sargsyan Street,Kasakh,,,,['B8024']
0,"1 микрорайон, Мецамор","1st Microdistrict, Metsamor",OK,44.113515,40.145931,Armenia,Armavir,Metsamor,Yandex,Metsamor,,1st Microdistrict,,,,,,['A2']
3,"1 թաղամաս 9/3, Մեծամոր","1st District 9/3, Metsamor",OK,44.1144082,40.14475269,Armenia,Armavir,Metsamor,Nominatim,Metsamor,9/3,,,,1 Block,,,['A5']
4595,"1 թաղամաս, Մեծամոր","1st District, Metsamor",OK,44.1144082,40.14475269,Armenia,Armavir,Metsamor,Nominatim,Metsamor,,,,,1 Block,,,['B0']
4604,"1district, Metsamor","1st District, Metsamor",OK,44.113515,40.145931,Armenia,Armavir,Metsamor,Yandex,Metsamor,,1st District,,,,,,['B15']
4968,"Nalbandyan street, Stepanakert","Nalbandyan Street, Stepanakert",OK,46.763967,39.821664,Azerbaijan,,Nalbandyan,Yandex,Metsamor,,,,,,,,['B3865']
5369,"Երկաթգծի փողոց, Արգավանդ","Railway Street, Argavand",OK,44.43339611,40.15631255,Armenia,,Argavand,Nominatim,Metsamor,,,Erkatgtsi Street,Argavand,,,,['B7524']
5061,Syunik › Meghri,Syunik › Meghri,OK,46.2459121,38.9013004,Armenia,Syunik,Syunik,Nominatim,Meghri,,,,,,,,['B5208']
5458,"Մելիք Օհանջանյան փողոց 37, Մեղրի","37 Melik Ohanjanyan Street, Meghri",OK,46.243816,38.903486,Armenia,Syunik,Meghri,Yandex,Meghri,37,,Meliq Ohanjanyan Street,,,,,"['B7694', 'B7695']"
5649,"Փարամազի փողոց 14, Մեղրի","14 Paramaz Street, Meghri",OK,46.24704977,38.90304936,Armenia,Syunik,Meghri,Nominatim,Meghri,14,,Faramazi Street,,,,,"['B8118', 'B8119']"
20,"1st Street 10, Nor Kharberd","1st Street 10, Nor Kharberd",OK,44.47235785,40.08727445,Armenia,,Nor Kharberd,Nominatim,Masis,10,,Armenia Street,Nor Kharberd,,,1st,['A35']
21,"1st Street, Nor Kharberd","1st Street, Nor Kharberd",OK,44.4873806,40.09051384,Armenia,,Nor Kharberd,Nominatim,Masis,,,Armenia Street,Nor Kharberd,,,1st,['A36']
3666,"Դպրոցականների նրբանցք 31, Մասիս","31 Schoolchildren&#39;s Alley, Masis",OK,44.44242915,40.05998569,Armenia,Ararat,Masis,Nominatim,Masis,39,Nor District,Dprocakanner Street Lane,,,,,['A30180']
4086,"Մխիթար Հերացի փողոց 20, Մասիս","20 Mkhitar Heratsi Street, Masis",OK,44.440789,40.062948,Armenia,Ararat,Masis,Yandex,Masis,20,,Armenia Street,,,,1st,['A31122']
4224,"Նոր թաղամաս, Մասիս","New District, Masis",OK,44.4428902,40.0591517,Armenia,Ararat,Masis,Nominatim,Masis,,Nor District,Shiraz Street,,,,,['A31661']
4607,"1-ին փողոց 61, Մասիս","61 1st Street, Masis",OK,44.44053909,40.0638591,Armenia,Ararat,Masis,Nominatim,Masis,61,,Armenia Street,,,,1st,['B18']
4622,"3-րդ թաղամաս 1, Մասիս","3rd District 1, Masis",OK,44.4517841,40.0666764,Armenia,Ararat,Masis,Nominatim,Masis,1,3rd District,Mkhitar Heratsi Street,,,,,['B39']
4624,"3-րդ թաղամաս 20, Մասիս","3rd District 20, Masis",OK,44.44862736,40.0634827,Armenia,Ararat,Masis,Nominatim,Masis,20,3rd District,,,,,,['B41']
4651,"8-րդ փողոց, Նոր Խարբերդ","8th Street, Nor Kharberd",OK,44.47866224,40.10465841,Armenia,,Nor Kharberd,Nominatim,Masis,,,Armenia Street,Nor Kharberd,,,8th,['B78']
4753,"Dprocakanner alley 10, Masis","Dprocakanner Alley 10, Masis",OK,41.6797745,42.1421379,Georgia,Ararat,Masis,Azure,Masis,26,,Maisis Kucha,,,,,['B1663']
4754,"Dprocakanner street, Masis","Dprocakanner Street, Masis",OK,44.44694783,40.06326864,Armenia,Ararat,Masis,Nominatim,Masis,,3rd District,Dprocakanner Street,,,,,"['B1664', 'B1665', 'B1666']"
4815,"Hanrapetutyun street, Masis","Hanrapetutyun Street, Masis",OK,44.44264927,40.06250843,Armenia,Ararat,Masis,Nominatim,Masis,,Nor District,Hanrapetutyun Street,,,,,['B2058']
5155,"Квартал Нор 18, Масис","Quarter Nor 18, Masis",OK,44.44221873,40.0602422,Armenia,Ararat,Masis,Nominatim,Masis,18,Nor District,Quarter Nor,,,,,['B7193']
5156,"Квартал Нор, Масис","Nor Quarter, Masis",OK,44.44221873,40.0602422,Armenia,Ararat,Masis,Nominatim,Masis,,Nor District,,,,,,['B7194']
5314,"Արամի փողոց, Ղուկասավան","Arami Street, Ghukasavan",OK,44.41973189,40.12882553,Armenia,,Ghukasavan,Nominatim,Masis,,,Aram Street,Ghukasavan,,,,['B7425']
5339,"Գործարանային փողոց 43, Մասիս","43 Factory Street, Masis",OK,44.439909,40.062541,Armenia,Ararat,Masis,Yandex,Masis,43,,Armenia Street,,,,1st,['B7475']
5476,"Մխիթար Հերացու 6-րդ նրբանցք, Մասիս","Mkhitar Heratsi 6th Alley, Masis",OK,44.44913771,40.06238927,Armenia,Ararat,Masis,Nominatim,Masis,,3rd District,Mkhitar Heratsi Street,,,6th Lane,,['B7721']
5477,"Մխիթար Հերացու փողոց 9/12, Մասիս","9/12 Mkhitar Heratsi Street, Masis",OK,44.4471622,40.06114905,Armenia,Ararat,Masis,Nominatim,Masis,9/12-1,Nor District,Mkhitar Heratsi Street,,,,,['B7722']
5478,"Մխիթար Հերացու փողոց, Մասիս","Mkhitar Heratsi Street, Masis",OK,44.44953641,40.064031,Armenia,Ararat,Masis,Nominatim,Masis,,3rd District,Mkhitar Heratsi Street,,,,,['B7723']
5522,"Նոր թաղամաս 27, Մասիս","New District 27, Masis",OK,44.44221873,40.0602422,Armenia,Ararat,Masis,Nominatim,Masis,27,Nor District,,,,,,['B7844']
5523,"Նոր թաղամաս 3/1, Մասիս","New District 3/1, Masis",OK,44.44221873,40.0602422,Armenia,Ararat,Masis,Nominatim,Masis,3/1,Nor District,,,,,,['B7845']
5524,"Նոր թաղամաս 38, Մասիս","New District 38, Masis",OK,44.44221873,40.0602422,Armenia,Ararat,Masis,Nominatim,Masis,38,Nor District,,,,,,['B7846']
189,"Amiryan Street 12, Dzoragyugh","Amiryan Street 12, Dzoragyugh",OK,45.2006176,40.16792345,Armenia,,Dzoragyugh,Nominatim,Martuni,12,,Amiryan Street,Dzoragyugh,,,,['A1185']
932,Gegharkunik › Martuni,Gegharkunik › Martuni,OK,45.3054735,40.1390478,Armenia,Gegharkunik,Gegharkunik,Nominatim,Martuni,,,,,,,,"['A7433', 'B1825', 'B1826']"
4759,"Erevanyan street 107Ա, Martuni",,OK,45.29828913,40.13364742,Armenia,Gegharkunik,,Nominatim,Martuni,,,Yerevanyan Street,,,,,['B1727']
5366,"Երևանյան փողոց 24, Մարտունի","Yerevanyan Street 24, Martuni",OK,45.30139583,40.14506261,Armenia,Yerevan,,Nominatim,Martuni,24,,Yerevanyan Street,,,,,['B7521']
2737,Yerevan › Malatia-Sebastia,Yerevan › Malatia-sebastia,OK,44.4458661,40.1741198,Armenia,Yerevan,,Nominatim,Malatia-Sebastia,,,Malatia-sebastia,,,,,"['A26948', 'A26949', 'A26950', 'A26951', 'A26952', 'A26953', 'A26954', 'A26955', 'A26956', 'A26957', 'A26958', 'A26959', 'A26960', 'A26961', 'A26962', 'A26963', 'A26964', 'A26965', 'A26966', 'A26967', 'A26968', 'A26969', 'A26970', 'A26971', 'A26972', 'A26973', 'A26974', 'A26975', 'A26976', 'A26977', 'A26978', 'A26979', 'A26980', 'A26981', 'A26982', 'A26983', 'A26984', 'A26985', 'A26986', 'A26987', 'A26988', 'A26989', 'A26990', 'A26991', 'A26992', 'A26993', 'A26994', 'A26995', 'A26996', 'A26997', 'A26998', 'A26999', 'A27000', 'A27001', 'A27002', 'A27003', 'A27004', 'A27005', 'A27006', 'A27007', 'A27008', 'A27009', 'A27010', 'A27011', 'A27012', 'A27013', 'A27014', 'A27015', 'A27016', 'A27017', 'A27018', 'A27019', 'A27020', 'A27021', 'A27022', 'A27023', 'A27024', 'A27025', 'A27026', 'A27027', 'A27028', 'A27029', 'A27030', 'A27031', 'A27032', 'A27033', 'A27034', 'A27035', 'A27036', 'A27037', 'A27038', 'A27039', 'A27040', 'A27041', 'A27042', 'A27043', 'A27044', 'A27045', 'A27046', 'A27047', 'A27048', 'A27049', 'A27050', 'A27051', 'A27052', 'A27053', 'A27054', 'A27055', 'A27056', 'A27057', 'A27058', 'A27059', 'A27060', 'A27061', 'A27062', 'A27063', 'A27064', 'A27065', 'A27066', 'A27067', 'A27068', 'A27069', 'A27070', 'A27071', 'A27072', 'A27073', 'A27074', 'A27075', 'A27076', 'A27077', 'A27078', 'A27079', 'A27080', 'A27081', 'A27082', 'A27083', 'A27084', 'A27085', 'A27086', 'A27087', 'A27088', 'A27089', 'A27090', 'A27091', 'A27092', 'A27093', 'A27094', 'A27095', 'A27096', 'A27097', 'A27098', 'A27099', 'A27100', 'A27101', 'A27102', 'A27103', 'A27104', 'A27105', 'A27106', 'A27107', 'A27108', 'A27109', 'A27110', 'A27111', 'A27112', 'A27113', 'A27114', 'A27115', 'A27116', 'A27117', 'A27118', 'A27119', 'A27120', 'A27121', 'A27122', 'A27123', 'A27124', 'A27125', 'A27126', 'A27127', 'A27128', 'A27129', 'A27130', 'A27131', 'A27132', 'A27133', 'A27134', 'A27135', 'A27136', 'A27137', 'A27138', 'A27139', 'A27140', 'A27141', 'A27142', 'A27143', 'A27144', 'A27145', 'A27146', 'A27147', 'A27148', 'A27149', 'A27150', 'A27151', 'A27152', 'A27153', 'A27154', 'A27155', 'A27156', 'A27157', 'A27158', 'A27159', 'A27160', 'A27161', 'A27162', 'A27163', 'A27164', 'A27165', 'B6834', 'B6835', 'B6836', 'B6837', 'B6838', 'B6839', 'B6840', 'B6841', 'B6842', 'B6843', 'B6844', 'B6845', 'B6846', 'B6847', 'B6848', 'B6849', 'B6850', 'B6851', 'B6852', 'B6853', 'B6854', 'B6855', 'B6856', 'B6857', 'B6858', 'B6859', 'B6860', 'B6861', 'B6862', 'B6863', 'B6864', 'B6865', 'B6866', 'B6867', 'B6868']"
4678,Aragatsotn › Ashtarak,Aragatsotn › Ashtarak,OK,44.3613061,40.2886849,Armenia,Aragatsotn,Aragats,Nominatim,Khoy,,,Ashtarak,,,,,"['B569', 'B570', 'B571', 'B572', 'B573', 'B574']"
4679,Aragatsotn › Byurakan,Aragatsotn › Byurakan,OK,44.2688648,40.3387135,Armenia,Aragatsotn,Aragats,Nominatim,Khoy,,,,Byurakan,,,,['B575']
4680,Aragatsotn › Oshakan,Aragatsotn › Oshakan,OK,44.3117312,40.2668923,Armenia,Aragatsotn,Aragats,Nominatim,Khoy,,,,Oshakan,,,,['B576']
5308,"Արագած փողոց, Վաղարշապատ","Aragats Street, Vagharshapat",OK,44.32599931,40.16883935,Armenia,,Aragats,Nominatim,Khoy,,Zvartnots,Aragats Street,,,,,['B7417']
5310,"Արագածի փողոց, Ոսկեվազ","Aragats Street, Voskevaz",OK,44.29546,40.279642,Armenia,,Aragats,Yandex,Khoy,,,Aragats Street,Voskevaz village,,,,['B7419']
1205,"Kentron block, Hrazdan","Kentron Block, Hrazdan",OK,44.74914771,40.52381563,Armenia,Yerevan,,Nominatim,Kentron,,,,Verin Aghbyurak,Kentron Block,,,"['A9449', 'B2296', 'B2297', 'B2298', 'B2299', 'B2300']"
1206,"Kentronakan street, Yerevan","Kentronakan Street, Yerevan",OK,44.44060238,40.15814373,Armenia,Yerevan,,Nominatim,Kentron,,,Kentronakan Street,Argavand,,,,"['A9450', 'A9451', 'A9452', 'A9453', 'A9454', 'A9455', 'A9456', 'A9457', 'A9458', 'A9459', 'B2304', 'B2305']"
