Unnamed: 0,Address,Translated,Status,Latitude,Longitude,Street,Country,Province,Administrative District,Town,api,Building,Village,Neighbourhood,Block,Lane,Street Number,Index
1,"11-я улица 89, Зовуни","11th Street 89, Zovuni",OK,40.23044465,44.50797299,Zovuni Street,Armenia,,Nairi,Zovuni,Nominatim,89,Zovuni,,,,11th,['B1']
1190,"Zovuni 39 street, Zovuni","Zovuni 39 Street, Zovuni",OK,40.23420379,44.50457302,Zovuni Street,Armenia,,Nairi,Zovuni,Nominatim,39,Zovuni,,,,,['B7173']
1492,"Զորավար Անդրանիկի փողոց 6, Պռոշյան","6 Zoravar Andranik Street, Proshyan",OK,40.24883108,44.42060265,Zoravar Andranik Street,Armenia,,Nairi,Proshyan,Nominatim,,Proshyan,,,,,['B7531']
1489,"Զորավար Անդրանիկ փողոցի 2-րդ փակուղի 18, Դիլիջան","18, Zoravar Andranik Street, 2nd Dead End, Dilijan",OK,40.742167,44.855523,Zoravar Andranik Street,Armenia,Tavush,Dilijan,,Yandex,18,,,,Blind Ally,2nd,['B7528']
1186,"Zoravar Andranik street 142, Yerevan","Zoravar Andranik Street 142, Yerevan",OK,40.16778575,44.44240816,Zoravar Andranik Street,Armenia,Yerevan,,,Nominatim,142,,,,,,['B7160']
1187,"Zoravar Andranik street 146, Yerevan","Zoravar Andranik Street 146, Yerevan",OK,40.16660125,44.44262562,Zoravar Andranik Street,Armenia,Yerevan,,,Nominatim,146,,,,,,['B7161']
1188,"Zoravar Andranik street, Yerevan","Zoravar Andranik Street, Yerevan",OK,40.16811697,44.44605479,Zoravar Andranik Street,Armenia,Yerevan,,,Nominatim,,,,,,,"['B7162', 'B7163', 'B7164', 'B7165', 'B7166', 'B7167', 'B7168', 'B7169', 'B7170', 'B7171']"
1491,"Զորավար Անդրանիկի փողոց 1/1, Երևան","1/1 Zoravar Andranik Street, Yerevan",OK,40.16811697,44.44605479,Zoravar Andranik Street,Armenia,Yerevan,,,Nominatim,,,,,,,['B7530']
1185,"Zoravar Andranik avenue, Hrazdan","Zoravar Andranik Avenue, Hrazdan",OK,40.52825533,44.76678462,Zoravar Andranik Avenue,Armenia,Kotayk,Hrazdan,,Nominatim,,,,,,,"['B7158', 'B7159']"
1490,"Զորավար Անդրանիկի պողոտա 84, Հրազդան","84 Zoravar Andranik Avenue, Hrazdan",OK,40.5446318,44.76883145,Zoravar Andranik Avenue,Armenia,Kotayk,Hrazdan,,Nominatim,84,,,,,,['B7529']
1183,"Zavaryan street 1, Yerevan","Zavaryan Street 1, Yerevan",OK,40.16671915,44.5116276,Zavaryan Street,Armenia,Yerevan,,,Nominatim,1,,,,,,['B7151']
1184,"Zavaryan street, Yerevan","Zavaryan Street, Yerevan",OK,40.16849018,44.52129796,Zavaryan Street,Armenia,Yerevan,,,Nominatim,,,,,,,"['B7152', 'B7153', 'B7154', 'B7155', 'B7156', 'B7157']"
1182,"Zarobyan street, Yerevan","Zarobyan Street, Yerevan",OK,40.1916526,44.51197639,Zarobyan Street,Armenia,Yerevan,,,Nominatim,,,,,,,['B7150']
1488,"Զաքյան փողոցի 1-ին նրբանցք 1, Երևան","1st Lane, Zakyan Street, Yerevan",OK,40.17696,44.504956,Zaqyan Street,Armenia,Yerevan,,,Yandex,1,,,,1st Lane,,"['B7526', 'B7527']"
1180,"Zaqaryan street, Vanadzor","Zaqaryan Street, Vanadzor",OK,40.80079324,44.4933792,Zaqaryan Street,Armenia,Lori,Vanadzor,,Nominatim,,,,,,,"['B7146', 'B7147']"
1175,"Zakian street 1, Yerevan","Zakian Street 1, Yerevan",OK,40.17877705,44.50975955,Zakian Street,Armenia,Yerevan,,,Nominatim,1,,,,,,['B7124']
1176,"Zakian street 3, Yerevan","Zakian Street 3, Yerevan",OK,40.1783768,44.50985347,Zakian Street,Armenia,Yerevan,,,Nominatim,3,,,,,,['B7125']
1177,"Zakian street 5, Yerevan","Zakian Street 5, Yerevan",OK,40.1779725,44.5090473,Zakian Street,Armenia,Yerevan,,,Nominatim,5,,,,,,['B7126']
1178,"Zakian street 8, Yerevan","Zakian Street 8, Yerevan",OK,40.1769044,44.50608535,Zakian Street,Armenia,Yerevan,,,Nominatim,8,,,,,,['B7127']
1179,"Zakian street, Yerevan","Zakian Street, Yerevan",OK,40.1773022,44.50743004,Zakian Street,Armenia,Yerevan,,,Nominatim,,,,,,,"['B7128', 'B7129', 'B7130', 'B7131', 'B7132', 'B7133', 'B7134', 'B7135', 'B7136', 'B7137', 'B7138', 'B7139', 'B7140', 'B7141', 'B7142', 'B7143', 'B7144', 'B7145']"
1173,"Z. Sarkavag St, Yerevan","Z. Sarkavag Street, Yerevan",OK,40.177642,44.512519,Z. Sarkavag Street,Armenia,Yerevan,,,Yandex,,,,,,,['B7122']
1172,"Yubeka Street 2, Vanadzor","Yubeka Street 2, Vanadzor",OK,40.7959893,44.52288978,Yubeka Street,Armenia,Lori,Vanadzor,,Nominatim,2,,Bazum,,,,"['B7120', 'B7121']"
1164,"Yeznik Koghbatsi street 1, Yerevan","Yeznik Koghbatsi Street 1, Yerevan",OK,40.1804631,44.5098561,Yeznik Koghbatsi Street,Armenia,Yerevan,,,Nominatim,20/1,,,,,,"['B6973', 'B6974', 'B6975', 'B6976', 'B6977', 'B6978', 'B6979', 'B6980']"
1165,"Yeznik Koghbatsi street 1a, Yerevan","Yeznik Koghbatsi Street 1a, Yerevan",OK,40.1793637,44.50717908,Yeznik Koghbatsi Street,Armenia,Yerevan,,,Nominatim,1a,,,,,,"['B6981', 'B6982']"
1166,"Yeznik Koghbatsi street 2, Yerevan","Yeznik Koghbatsi Street 2, Yerevan",OK,40.1805098,44.5098836,Yeznik Koghbatsi Street,Armenia,Yerevan,,,Nominatim,20/2,,,,,,['B6983']
1167,"Yeznik Koghbatsi Street 20/5, Yerevan","Yeznik Koghbatsi Street 20/5, Yerevan",OK,40.1806314,44.5100473,Yeznik Koghbatsi Street,Armenia,Yerevan,,,Nominatim,20/5,,,,,,['B6984']
1168,"Yeznik Koghbatsi street 30, Yerevan","Yeznik Koghbatsi Street 30, Yerevan",OK,40.18193605,44.51191967,Yeznik Koghbatsi Street,Armenia,Yerevan,,,Nominatim,30,,,,,,['B6985']
1169,"Yeznik Koghbatsi street 4, Yerevan","Yeznik Koghbatsi Street 4, Yerevan",OK,40.1791126,44.50852486,Yeznik Koghbatsi Street,Armenia,Yerevan,,,Nominatim,4,,,,,,['B6986']
1170,"Yeznik Koghbatsi street 42, Yerevan","Yeznik Koghbatsi Street 42, Yerevan",OK,40.18326105,44.51322865,Yeznik Koghbatsi Street,Armenia,Yerevan,,,Nominatim,42,,,,,,['B6987']
1171,"Yeznik Koghbatsi street, Yerevan","Yeznik Koghbatsi Street, Yerevan",OK,40.18058071,44.50981248,Yeznik Koghbatsi Street,Armenia,Yerevan,,,Nominatim,,,,,,,"['B6988', 'B6989', 'B6990', 'B6991', 'B6992', 'B6993', 'B6994', 'B6995', 'B6996', 'B6997', 'B6998', 'B6999', 'B7000', 'B7001', 'B7002', 'B7003', 'B7004', 'B7005', 'B7006', 'B7007', 'B7008', 'B7009', 'B7010', 'B7011', 'B7012', 'B7013', 'B7014', 'B7015', 'B7016', 'B7017', 'B7018', 'B7019', 'B7020', 'B7021', 'B7022', 'B7023', 'B7024', 'B7025', 'B7026', 'B7027', 'B7028', 'B7029', 'B7030', 'B7031', 'B7032', 'B7033', 'B7034', 'B7035', 'B7036', 'B7037', 'B7038', 'B7039', 'B7040', 'B7041', 'B7042', 'B7043', 'B7044', 'B7045', 'B7046', 'B7047', 'B7048', 'B7049', 'B7050', 'B7051', 'B7052', 'B7053', 'B7054', 'B7055', 'B7056', 'B7057', 'B7058', 'B7059', 'B7060', 'B7061', 'B7062', 'B7063', 'B7064', 'B7065', 'B7066', 'B7067', 'B7068', 'B7069', 'B7070', 'B7071', 'B7072', 'B7073', 'B7074', 'B7075', 'B7076', 'B7077', 'B7078', 'B7079', 'B7080', 'B7081', 'B7082', 'B7083', 'B7084', 'B7085', 'B7086', 'B7087', 'B7088', 'B7089', 'B7090', 'B7091', 'B7092', 'B7093', 'B7094', 'B7095', 'B7096', 'B7097', 'B7098', 'B7099', 'B7100', 'B7101', 'B7102', 'B7103', 'B7104', 'B7105', 'B7106', 'B7107', 'B7108', 'B7109', 'B7110', 'B7111', 'B7112', 'B7113', 'B7114', 'B7115', 'B7116', 'B7117', 'B7118', 'B7119']"
1277,"Улица Езника Кохбаци 2А, Ереван","2a Eznika Kokhbatsi Street, Yerevan",OK,40.1786815,44.5078922,Yeznik Koghbatsi Street,Armenia,Yerevan,,,Nominatim,2a,,,,,,['B7272']
1278,"Улица Езника Кохбаци, Ереван","Yeznik Koghbatsi Street, Yerevan",OK,40.18058071,44.50981248,Yeznik Koghbatsi Street,Armenia,Yerevan,,,Nominatim,,,,,,,['B7273']
1468,"Եզնիկ Կողբացու փողոց 16, Երևան","16 Yeznik Koghbatsi Street, Yerevan",OK,40.1802559,44.50980335,Yeznik Koghbatsi Street,Armenia,Yerevan,,,Nominatim,16,,,,,,"['B7497', 'B7498', 'B7499', 'B7500', 'B7501', 'B7502', 'B7503']"
1469,"Եզնիկ Կողբացու փողոց 2Ա, Երևան","2a Yeznik Koghbatsi Street, Yerevan",OK,40.1786815,44.5078922,Yeznik Koghbatsi Street,Armenia,Yerevan,,,Nominatim,2a,,,,,,['B7504']
1163,"Yerznkian Street, Yerevan","Yerznkian Street, Yerevan",OK,40.19361586,44.4915131,Yerznkian Street,Armenia,Yerevan,,,Nominatim,,,,,,,"['B6970', 'B6971', 'B6972']"
1160,"Yervand Kochar street 11, Yerevan","Yervand Kochar Street 11, Yerevan",OK,40.1706656,44.51762555,Yervand Kochar Street,Armenia,Yerevan,,,Nominatim,11,,,,,,"['B6935', 'B6936', 'B6937']"
1161,"Yervand Kochar street 7, Yerevan","Yervand Kochar Street 7, Yerevan",OK,40.17165985,44.51922009,Yervand Kochar Street,Armenia,Yerevan,,,Nominatim,7,,,,,,['B6938']
1162,"Yervand Kochar street, Yerevan","Yervand Kochar Street, Yerevan",OK,40.17114008,44.5175391,Yervand Kochar Street,Armenia,Yerevan,,,Nominatim,,,,,,,"['B6939', 'B6940', 'B6941', 'B6942', 'B6943', 'B6944', 'B6945', 'B6946', 'B6947', 'B6948', 'B6949', 'B6950', 'B6951', 'B6952', 'B6953', 'B6954', 'B6955', 'B6956', 'B6957', 'B6958', 'B6959', 'B6960', 'B6961', 'B6962', 'B6963', 'B6964', 'B6965', 'B6966', 'B6967', 'B6968', 'B6969']"
1487,"Երվանդ Քոչարի փողոց 19/8, Երևան","19/8 Yervand Kochar Street, Yerevan",OK,40.17114008,44.5175391,Yervand Kochar Street,Armenia,Yerevan,,,Nominatim,,,,,,,['B7525']
1484,"Երիտասարդության փողոց 1, Մերձավան","1 Eritasutyan Street, Merdzavan",OK,40.18349555,44.40052583,Yeritasardutyan Street,Armenia,,,,Nominatim,1,Merdzavan,,,,,['B7522']
1159,"Yeritasardakan street, Abovyan","Yeritasardakan Street, Abovyan",OK,40.26760066,44.62440625,Yeritasardakan Street,Armenia,Kotayk,Abovyan,Abovyan,Nominatim,,,Elar District,,,,['B6934']
332,"Erevanyan street 16/1, Armavir","Erevanyan Street 16/1, Armavir",OK,40.05803509,43.92536624,Yerevanyan Street,Armenia,Armavir,Armavir,Armavir,Nominatim,,Shenavan,,,,,['B1728']
331,"Erevanyan street 107Ա, Martuni",,OK,40.13364742,45.29828913,Yerevanyan Street,Armenia,Gegharkunik,Martuni,,Nominatim,,,,,,,['B1727']
1482,"Երևանյան փողոց 1, Արտաշատ","Yerevanyan Street 1, Artashat",OK,39.9615506,44.53687001,Yerevanyan Street,Armenia,Yerevan,Artashat,,Nominatim,1,,,,,,['B7520']
1483,"Երևանյան փողոց 24, Մարտունի","Yerevanyan Street 24, Martuni",OK,40.14506261,45.30139583,Yerevanyan Street,Armenia,Yerevan,Martuni,,Nominatim,,,,,,,['B7521']
1769,"Սուրբ Հարություն փողոց, Փարաքար","Surb Harutyun Street, Parakar",OK,40.1643944,44.40818511,Yerevanyan Street,Armenia,,,,Nominatim,24,Parakar,,,,,['B7994']
1481,"Երևանյան խճուղի, Մերձավան","Yerevan Highway, Merdzavan",OK,40.18511574,44.40186955,Yerevanyan Highway,Armenia,Yerevan,,,Nominatim,,Merdzavan,,,,,['B7519']
1156,"Yerevan Highway, Gyumri","Yerevan Highway, Gyumri",OK,40.76759776,43.84456146,Yerevanyan Highway,Armenia,Yerevan,Gyumri,,Nominatim,,,,,,,"['B6921', 'B6922', 'B6923', 'B6924', 'B6925', 'B6926', 'B6927', 'B6928', 'B6929', 'B6930', 'B6931']"
1158,"Yerevanyan highway, Սևան","Yerevanyan Highway, Sevan",OK,40.548772,44.957293,Yerevanyan Highway,Armenia,Yerevan,Sevan,,Yandex,,,,,,,['B6933']
1479,"Երևանյան խճուղի 133, Գյումրի","Yerevan Highway 133, Gyumri",OK,40.76638975,43.84505922,Yerevanyan Highway,Armenia,Yerevan,Gyumri,,Nominatim,133,,,,,,['B7515']
1480,"Երևանյան խճուղի, Գյումրի","Yerevan Highway, Gyumri",OK,40.76759776,43.84456146,Yerevanyan Highway,Armenia,Yerevan,Gyumri,,Nominatim,,,,,,,"['B7516', 'B7517', 'B7518']"
1279,"Улица Ереванян 14, Раздан","Yerevanyan Street 14, Hrazdan",OK,40.4941386,44.75656044,Yerevanian Street,Armenia,Yerevan,Hrazdan,,Nominatim,14,,,,,,['B7274']
1157,"Yerevan street 19, Tsakkar","Yerevan Street 19, Tsakkar",OK,40.1721717,45.22256545,Yerevan Street,Armenia,Yerevan,,,Nominatim,19,Tsakkar,,,,,['B6932']
1220,"Переулок Ереванянского Шоссе 89, Ванадзор","Yerevanyanskogo Highway Lane 89, Vanadzor",OK,40.79619,44.506618,Yerevan Highway Lane,Armenia,Yerevan,Vanadzor,,Yandex,89,,,,,,['B7209']
1193,"Ереванское шоссе 143А, Гюмри","Yerevan Highway 143a, Gyumri",OK,40.764444,43.844604,Yerevan Highway,Armenia,Yerevan,Gyumri,,Yandex,143A,,,,,,['B7176']
1194,"Ереванское шоссе 27А, Гюмри","Yerevan Highway 27a, Gyumri",OK,40.775788,43.852581,Yerevan Highway,Armenia,Yerevan,Gyumri,,Yandex,27A,,,,,,['B7177']
1141,"Yekmalyan street 1, Yerevan","Yekmalyan Street 1, Yerevan",OK,40.18438505,44.50888542,Yekmalyan Street,Armenia,Yerevan,,,Nominatim,1,,,,,,"['B6200', 'B6201', 'B6202', 'B6203']"
1142,"Yekmalyan street 1/1, Yerevan","Yekmalyan Street 1/1, Yerevan",OK,40.18468335,44.50775654,Yekmalyan Street,Armenia,Yerevan,,,Nominatim,1/1,,,,,,"['B6204', 'B6205', 'B6206']"
1143,"Yekmalyan street 16, Yerevan","Yekmalyan Street 16, Yerevan",OK,40.18459875,44.50856227,Yekmalyan Street,Armenia,Yerevan,,,Nominatim,16,,,,,,['B6207']
1144,"Yekmalyan street, Yerevan","Yekmalyan Street, Yerevan",OK,40.18475942,44.50742234,Yekmalyan Street,Armenia,Yerevan,,,Nominatim,,,,,,,"['B6208', 'B6209', 'B6210', 'B6211', 'B6212', 'B6213', 'B6214', 'B6215', 'B6216', 'B6217', 'B6218', 'B6219', 'B6220', 'B6221', 'B6222', 'B6223', 'B6224', 'B6225', 'B6226', 'B6227', 'B6228', 'B6229', 'B6230', 'B6231', 'B6232', 'B6233', 'B6234', 'B6235', 'B6236', 'B6237', 'B6238', 'B6239', 'B6240', 'B6241', 'B6242', 'B6243', 'B6244', 'B6245', 'B6246', 'B6247', 'B6248', 'B6249', 'B6250', 'B6251', 'B6252', 'B6253', 'B6254', 'B6255', 'B6256', 'B6257', 'B6258', 'B6259', 'B6260', 'B6261', 'B6262', 'B6263', 'B6264', 'B6265', 'B6266', 'B6267', 'B6268', 'B6269']"
1471,"Եկմալյան փողոց, Երևան","Yekmalyan Street, Yerevan",OK,40.18475942,44.50742234,Yekmalyan Street,Armenia,Yerevan,,,Nominatim,,,,,,,['B7506']
1474,"Եղիշե Չարենցի փողոց 166, Եղվարդ","166 Yeghishe Charents Street, Yeghvard",OK,40.318861,44.485579,Yeghishe Charents Street,Armenia,,Kapan,Yeghvard,Yandex,166,,,,,,['B7509']
1475,"Եղիշե Չարենցի փողոց 46, Վարդենիս","46 Yeghishe Charents Street, Vardenis",OK,40.189617,45.743301,Yeghishe Charents Street,Armenia,Gegharkunik,Vardenis,Vardenis,Yandex,46,,,,,,['B7510']
1476,"Եղիշե Չարենցի փողոց 54, Վարդենիս","54 Yeghishe Charents Street, Vardenis",OK,40.19032,45.745448,Yeghishe Charents Street,Armenia,Gegharkunik,Vardenis,Vardenis,Yandex,54,,,,,,['B7511']
1274,"Улица Егише Чаренца 14, Гюмри","Yeghishe Charents Street 14, Gyumri",OK,40.826262,43.824581,Yeghishe Charents Street,Armenia,Shirak,Gyumri,Gyumri,Yandex,14,,,,,,['B7269']
1275,"Улица Егише Чаренца 15, Гюмри","Yeghishe Charents Street 15, Gyumri",OK,40.8259,43.826782,Yeghishe Charents Street,Armenia,Shirak,Gyumri,Gyumri,Yandex,15,,,,,,['B7270']
1276,"Улица Егише Чаренца 2, Гюмри","Yeghishe Charents Street 2, Gyumri",OK,40.826023,43.832055,Yeghishe Charents Street,Armenia,Shirak,Gyumri,Gyumri,Yandex,2,,,,,,['B7271']
1472,"Եղիշե Չարենցի փողոց 1, Գյումրի","1 Yeghishe Charents Street, Gyumri",OK,40.825668,43.832028,Yeghishe Charents Street,Armenia,Shirak,Gyumri,Gyumri,Yandex,1,,,,,,['B7507']
1473,"Եղիշե Չարենցի փողոց 15, Գյումրի","15 Yeghishe Charents Street, Gyumri",OK,40.8259,43.826782,Yeghishe Charents Street,Armenia,Shirak,Gyumri,Gyumri,Yandex,15,,,,,,['B7508']
1477,"Եղիշե Չարենցի փողոց 8, Գյումրի","8 Yeghishe Charents Street, Gyumri",OK,40.826358,43.8283,Yeghishe Charents Street,Armenia,Shirak,Gyumri,Gyumri,Yandex,8,,,,,,['B7512']
1478,"Եղիշե Չարենցի փողոց, Գյումրի","Yeghishe Charents Street, Gyumri",OK,40.82605,43.827419,Yeghishe Charents Street,Armenia,Shirak,Gyumri,Gyumri,Yandex,,,,,,,"['B7513', 'B7514']"
1280,"Улица Ехбайрутян 16, Ереван","16 Ekhbayrutyan Street, Yerevan",OK,40.1527207,44.48280717,Yeghbayrutyan Street,Armenia,Yerevan,,,Nominatim,16,,3th Residential Area,,,,['B7275']
1102,"Vardanants Square 1, Gyumri","Vardanants Square 1, Gyumri",OK,40.7851911,43.84271143,Vardanants Square,Armenia,Shirak,Gyumri,Gyumri,Nominatim,1,,,,,,['B5877']
1139,"Vrtanes Papazyan street, Yerevan","Vrtanes Papazyan Street, Yerevan",OK,40.19898841,44.52408363,Vrtanes Papazyan Street,Armenia,Yerevan,,,Nominatim,,,,,,,"['B6197', 'B6198']"
1136,"Vratsakan street 15, Yerevan","Vratsakan Street 15, Yerevan",OK,40.20772955,44.51027005,Vratsakan Street,Armenia,Yerevan,,,Nominatim,15,,,,,,['B6180']
1137,"Vratsakan street 8, Yerevan","Vratsakan Street 8, Yerevan",OK,40.20588165,44.51065765,Vratsakan Street,Armenia,Yerevan,,,Nominatim,8,,,,,,['B6181']
1138,"Vratsakan street, Yerevan","Vratsakan Street, Yerevan",OK,40.20834996,44.51098228,Vratsakan Street,Armenia,Yerevan,,,Nominatim,,,,,,,"['B6182', 'B6183', 'B6184', 'B6185', 'B6186', 'B6187', 'B6188', 'B6189', 'B6190', 'B6191', 'B6192', 'B6193', 'B6194', 'B6195', 'B6196']"
1710,"Ոսկերիչների փողոց 1, Երևան","1 Voskerichner Street, Yerevan",OK,40.17371915,44.5004598,Voskerichnery Street,Armenia,Yerevan,,,Nominatim,9/1,,,,,,['B7893']
1711,"Որոտան փողոց 5, Սիսիան","Vorotan Street 5, Sisian",OK,39.5187094,46.01781502,Vorotan Street,Armenia,Syunik,Sisian,Vorotan,Nominatim,5,,,,,,['B7894']
15,"26 Commissars Street 41/1, Dilijan station","26 Commissars Street 41/1, Dilijan Station",OK,42.12047606,43.01023421,Vladimer Street'aroselsk'is Kucha,Georgia,Tavush,Dilijan,,Azure,,,,,,,['B20']
1805,"Վիրահայոց փողոց 78Ա, Ստեփանավան","78a Virahayots Street, Stepanavan",OK,41.01728928,44.37857391,Virahayots Street,Armenia,Lori,Stepanavan,Stepanavan,Nominatim,,,,,,,['B8042']
1134,"Vilnyus street, Nor Nork 9th massive","Vilnyus Street, Nor Nork 9th Massive",OK,40.17331861,44.56335168,Vilnyus Street,Armenia,Yerevan,Nor Nork,,Nominatim,,,Nor Nork 9th Massive,,,,"['B6174', 'B6175', 'B6176']"
1135,"Vilnyus street, Yerevan","Vilnyus Street, Yerevan",OK,40.1700097,44.56589062,Vilnyus Street,Armenia,Yerevan,,,Nominatim,,,Nor Nork 9th Massive,,,,"['B6177', 'B6178', 'B6179']"
1132,"Victor Hambardzumyan Street, Yerevan","Victor Hambardzumyan Street, Yerevan",OK,40.19713091,44.5003549,Victor Hambardzumyan Street,Armenia,Yerevan,,,Nominatim,,,,,,,"['B6156', 'B6157', 'B6158', 'B6159', 'B6160', 'B6161', 'B6162', 'B6163', 'B6164']"
1255,"Улица Виктора Амбарцумяна 37, Ереван","Victor Hambardzumyan Street 37, Yerevan",OK,40.196775,44.4989666,Victor Hambardzumyan Street,Armenia,Yerevan,,,Nominatim,37,,,,,,['B7248']
1131,"Verin Shengavit 2nd street, Yerevan","Verin Shengavit 2nd Street, Yerevan",OK,40.15410069,44.49270521,Verin Shengavit Street,Armenia,Yerevan,Shengavit,,Nominatim,,,Verin Shengavit,,,2nd,['B6155']
1127,"Verin Antarayin street 13/5, Yerevan","Verin Antarayin Street 13/5, Yerevan",OK,40.19569465,44.51098846,Verin Antarayin Street,Armenia,Yerevan,,,Nominatim,13/5,,,,,,['B6046']
1128,"Verin Antarayin street 130/2, Yerevan","Verin Antarayin Street 130/2, Yerevan",OK,40.1939962,44.51218705,Verin Antarayin Street,Armenia,Yerevan,,,Nominatim,130/2,,,,,,['B6047']
1129,"Verin Antarayin street 33, Yerevan","Verin Antarayin Street 33, Yerevan",OK,40.1964209,44.50880726,Verin Antarayin Street,Armenia,Yerevan,,,Nominatim,33,,,,,,['B6048']
1130,"Verin Antarayin street, Yerevan","Verin Antarayin Street, Yerevan",OK,40.19592057,44.51223499,Verin Antarayin Street,Armenia,Yerevan,,,Nominatim,,,,,,,"['B6049', 'B6050', 'B6051', 'B6052', 'B6053', 'B6054', 'B6055', 'B6056', 'B6057', 'B6058', 'B6059', 'B6060', 'B6061', 'B6062', 'B6063', 'B6064', 'B6065', 'B6066', 'B6067', 'B6068', 'B6069', 'B6070', 'B6071', 'B6072', 'B6073', 'B6074', 'B6075', 'B6076', 'B6077', 'B6078', 'B6079', 'B6080', 'B6081', 'B6082', 'B6083', 'B6084', 'B6085', 'B6086', 'B6087', 'B6088', 'B6089', 'B6090', 'B6091', 'B6092', 'B6093', 'B6094', 'B6095', 'B6096', 'B6097', 'B6098', 'B6099', 'B6100', 'B6101', 'B6102', 'B6103', 'B6104', 'B6105', 'B6106', 'B6107', 'B6108', 'B6109', 'B6110', 'B6111', 'B6112', 'B6113', 'B6114', 'B6115', 'B6116', 'B6117', 'B6118', 'B6119', 'B6120', 'B6121', 'B6122', 'B6123', 'B6124', 'B6125', 'B6126', 'B6127', 'B6128', 'B6129', 'B6130', 'B6131', 'B6132', 'B6133', 'B6134', 'B6135', 'B6136', 'B6137', 'B6138', 'B6139', 'B6140', 'B6141', 'B6142', 'B6143', 'B6144', 'B6145', 'B6146', 'B6147', 'B6148', 'B6149', 'B6150', 'B6151', 'B6152', 'B6153', 'B6154']"
1390,"Անտառային փողոց 136/5, Երևան","136/5 Antarayin Street, Yerevan",OK,40.19689635,44.50752341,Verin Antarayin Street,Armenia,Yerevan,,,Nominatim,136/5,,,,,,['B7400']
1803,"Վերին Անտառային փողոց 10, Երևան","10 Upper Forest Street, Yerevan",OK,40.194216,44.51115448,Verin Antarayin Street,Armenia,Yerevan,,,Nominatim,24/10,,,,,,['B8040']
1804,"Վերին Անտառային փողոց, Երևան","Upper Forest Street, Yerevan",OK,40.19592057,44.51223499,Verin Antarayin Street,Armenia,Yerevan,,,Nominatim,,,,,,,['B8041']
1125,"Verfel street 20, Gyumri","Verfel Street 20, Gyumri",OK,40.8256496,43.82102144,Verfel Street,Armenia,Shirak,Gyumri,Gyumri,Nominatim,20,,Austrian District,,,,['B6044']
1126,"Verfel street, Yerevan","Verfel Street, Yerevan",OK,40.17751399,44.49126334,Verfel Street,Armenia,Yerevan,,,Nominatim,,,Kilikia,,,,['B6045']
903,"Sargsyan 2nd row, Gyumri","Sargsyan 2nd Row, Gyumri",OK,40.818223,43.835315,V. Sargsyan Street ,Armenia,Shirak,Gyumri,Gyumri,Yandex,,,2nd District,,,,['B4671']
1791,"Վազգեն Սարգսյանի փողոց 7, Քասախ","7 Vazgen Sargsyan Street, Kasakh",OK,40.23503205,44.45059363,Vazgen Sargsyan Street,Armenia,,Nairi,Kasakh,Nominatim,7,Kasakh,,,,,['B8024']
1121,"Vazgen Sargsyan street 1, Gyumri","Vazgen Sargsyan Street 1, Gyumri",OK,40.80787805,43.8470575,Vazgen Sargsyan Street,Armenia,Shirak,Gyumri,Gyumri,Nominatim,1,,,,,,['B6029']
1122,"Vazgen Sargsyan street 2, Gyumri","Vazgen Sargsyan Street 2, Gyumri",OK,40.8066553,43.84682357,Vazgen Sargsyan Street,Armenia,Shirak,Gyumri,Gyumri,Nominatim,2,,,,,,['B6030']
1253,"Улица Вазгена Саргсяна 1, Гюмри","Vazgen Sargsyan Street, Gyumri",OK,40.80787805,43.8470575,Vazgen Sargsyan Street,Armenia,Shirak,Gyumri,Gyumri,Nominatim,1,,,,,,['B7246']
1789,"Վազգեն Սարգսյան փողոց 6, Գյումրի","6 Vazgen Sargsyan Street, Gyumri",OK,40.8075908,43.84655472,Vazgen Sargsyan Street,Armenia,Shirak,Gyumri,Gyumri,Nominatim,6,,,,,,"['B8020', 'B8021']"
1790,"Վազգեն Սարգսյանի փողոց 6ա, Գյումրի","6a Vazgen Sargsyan Street, Gyumri",OK,40.80685611,43.84762793,Vazgen Sargsyan Street,Armenia,Shirak,Gyumri,Gyumri,Nominatim,,,,,,,"['B8022', 'B8023']"
1124,"Vazgen Sargsyan street, Yerevan","Vazgen Sargsyan Street, Yerevan",OK,40.17691854,44.51037753,Vazgen Sargsyan Street,Armenia,Yerevan,,,Nominatim,,,,,,,"['B6033', 'B6034', 'B6035', 'B6036', 'B6037', 'B6038', 'B6039', 'B6040', 'B6041', 'B6042', 'B6043']"
1254,"Улица Вазгена Саргсяна 20, Ереван","Vazgena Sargsyan Street, Yerevan",OK,40.17691854,44.51037753,Vazgen Sargsyan Street,Armenia,Yerevan,,,Nominatim,,,,,,,['B7247']
495,"Kasyan street 1, Yerevan","Kasyan Street 1, Yerevan",OK,40.1990851,44.4932776,Vazgen I Street,Armenia,Yerevan,,,Nominatim,1,,,,,,"['B2275', 'B2276']"
496,"Kasyan street 12, Yerevan","Kasyan Street 12, Yerevan",OK,40.200745,44.49477219,Vazgen I Street,Armenia,Yerevan,,,Nominatim,12,,,,,,"['B2277', 'B2278']"
497,"Kasyan street, Yerevan","Kasyan Street, Yerevan",OK,40.19985616,44.49380367,Vazgen I Street,Armenia,Yerevan,,,Nominatim,,,,,,,"['B2279', 'B2280', 'B2281', 'B2282', 'B2283', 'B2284', 'B2285', 'B2286', 'B2287', 'B2288', 'B2289', 'B2290']"
1118,"Vazgen Arajin street 43, Vagharshapat","Vazgen Arajin Street 43, Vagharshapat",OK,40.1688675,44.29360355,Vazgen Arajin Street,Armenia,,,,Nominatim,43a,,,,,,['B6022']
1119,"Vazgen Arajin street 6, Vagharshapat","Vazgen Arajin Street 6, Vagharshapat",OK,40.165937,44.29606111,Vazgen Arajin Street,Armenia,,,,Nominatim,6,,,,,,"['B6023', 'B6024']"
1120,"Vazgen Arajin street, Vagharshapat","Vazgen Arajin Street, Vagharshapat",OK,40.16810856,44.29462243,Vazgen Arajin Street,Armenia,,,,Nominatim,,,,,,,"['B6025', 'B6026', 'B6027', 'B6028']"
1786,"Վազգեն Առաջինի փողոց 17, Վաղարշապատ","17 Vazgen Arayani Street, Vagharshapat",OK,40.17307124,44.29216566,Vazgen Arajin Street,Armenia,,,,Nominatim,,,,,,,['B8016']
1787,"Վազգեն Առաջինի փողոց, Վաղարշապատ","Vazgen Arayani Street, Vagharshapat",OK,40.17307124,44.29216566,Vazgen Arajin Street,Armenia,,,,Nominatim,,,,,,,"['B8017', 'B8018']"
1788,"Վազգեն Արաջինի փողոց, Վաղարշապատ","Vazgen Arajin Street, Vagharshapat",OK,40.16810856,44.29462243,Vazgen Arajin Street,Armenia,,,,Nominatim,,,,,,,['B8019']
1798,"Վասիլյան փողոց 3, Իջևան","3 Vasilyan Street, Ijevan",OK,40.8864076,45.14994888,Vasilyan Street,Armenia,Tavush,Ijevan,,Nominatim,3,,,,,,['B8035']
1716,"Պարոնյանի փողոց, Երևան","Paronyan Street, Yerevan",OK,40.2022372,44.5275093,Varshavyan Street,Armenia,Yerevan,,,Nominatim,,,,,,,"['B7901', 'B7902', 'B7903']"
1802,"Վարդգես Պետրոսյանի փողոց, Աշտարակ","Vardges Petrosyan Street, Ashtarak",OK,40.294872,44.356141,Vardges Petrosyan Street,Armenia,,,,Yandex,,,,,,,['B8039']
1800,"Վարդաշենի 6-րդ փողոց 38, Երևան","38 Vardashen 6th Street, Yerevan",OK,40.1455868,44.54149361,Vardashen Street,Armenia,Yerevan,,,Nominatim,38,,Vardashen,,,6th,['B8037']
1801,"Վարդաշենի 8-րդ փողոց 1, Երևան","1 Vardashen 8th Street, Yerevan",OK,40.14320855,44.54171966,Vardashen Street,Armenia,Yerevan,,,Nominatim,1,,Vardashen,,,8th,['B8038']
1103,"Vardanants St, Yerevan","Vardanants Street, Yerevan",OK,40.17565025,44.5200784,Vardanants Street,Armenia,Yerevan,,,Nominatim,,,,,,,"['B5878', 'B5879']"
1104,"Vardanants Street 122, Vanadzor","Vardanants Street 122, Vanadzor",OK,40.80431125,44.49636747,Vardanants Street,Armenia,Lori,Vanadzor,,Nominatim,122,,,,,,['B5880']
1105,"Vardanants Street 15, Yerevan","Vardanants Street 15, Yerevan",OK,40.17572185,44.52021842,Vardanants Street,Armenia,Yerevan,,,Nominatim,15,,,,,,['B5881']
1106,"Vardanants Street 18/2, Yerevan","Vardanants Street 18/2, Yerevan",OK,40.17546285,44.51983397,Vardanants Street,Armenia,Yerevan,,,Nominatim,18/2,,,,,,"['B5882', 'B5883', 'B5884', 'B5885']"
1107,"Vardanants Street 2, Yerevan","Vardanants Street 2, Yerevan",OK,40.17904365,44.51725743,Vardanants Street,Armenia,Yerevan,,,Nominatim,2,,,,,,['B5886']
1108,"Vardanants Street 5, Yerevan","Vardanants Street 5, Yerevan",OK,40.17917085,44.51765666,Vardanants Street,Armenia,Yerevan,,,Nominatim,5,,,,,,['B5887']
1109,"Vardanants Street 51, Vanadzor","Vardanants Street 51, Vanadzor",OK,40.8049829,44.4967128,Vardanants Street,Armenia,Lori,Vanadzor,,Nominatim,51,,,,,,['B5888']
1110,"Vardanants Street 5a, Yerevan","Vardanants Street 5a, Yerevan",OK,40.17925135,44.51845688,Vardanants Street,Armenia,Yerevan,,,Nominatim,5Ա,,,,,,['B5889']
1111,"Vardanants Street, Vanadzor","Vardanants Street, Vanadzor",OK,40.81502229,44.4704468,Vardanants Street,Armenia,Lori,Vanadzor,,Nominatim,,,,,,,"['B5890', 'B5891', 'B5892', 'B5893']"
1112,"Vardanants Street, Yerevan","Vardanants Street, Yerevan",OK,40.17565025,44.5200784,Vardanants Street,Armenia,Yerevan,,,Nominatim,,,,,,,"['B5894', 'B5895', 'B5896', 'B5897', 'B5898', 'B5899', 'B5900', 'B5901', 'B5902', 'B5903', 'B5904', 'B5905', 'B5906', 'B5907', 'B5908', 'B5909', 'B5910', 'B5911', 'B5912', 'B5913', 'B5914', 'B5915', 'B5916', 'B5917', 'B5918', 'B5919', 'B5920', 'B5921', 'B5922', 'B5923', 'B5924', 'B5925', 'B5926', 'B5927', 'B5928', 'B5929', 'B5930', 'B5931', 'B5932', 'B5933', 'B5934', 'B5935', 'B5936', 'B5937', 'B5938', 'B5939', 'B5940', 'B5941', 'B5942', 'B5943', 'B5944', 'B5945', 'B5946', 'B5947', 'B5948', 'B5949', 'B5950', 'B5951', 'B5952', 'B5953', 'B5954', 'B5955', 'B5956', 'B5957', 'B5958', 'B5959', 'B5960', 'B5961', 'B5962', 'B5963', 'B5964', 'B5965', 'B5966', 'B5967', 'B5968']"
1113,"Vardanants Street, Երևան","Vardanants Street, Yerevan",OK,40.17565025,44.5200784,Vardanants Street,Armenia,Yerevan,,,Nominatim,,,,,,,"['B5969', 'B5975', 'B5976', 'B5984', 'B5986', 'B5990']"
1114,"Vardanants street, Երևան","Vardanants Street, Yerevan",OK,40.17565025,44.5200784,Vardanants Street,Armenia,Yerevan,,,Nominatim,,,,,,,"['B5970', 'B5971', 'B5972', 'B5973', 'B5974', 'B5977', 'B5978', 'B5979', 'B5980', 'B5981', 'B5982', 'B5983', 'B5985', 'B5987', 'B5988', 'B5989', 'B5991', 'B5992', 'B5993']"
1799,"Վարդանանց փողոց 5Ա, Երևան","5a Vardanants Street, Yerevan",OK,40.17925135,44.51845688,Vardanants Street,Armenia,Yerevan,,,Nominatim,5Ա,,,,,,['B8036']
1071,"Tsitsernakaberd Highway, Yerevan","Tsitsernakaberd Highway, Yerevan",OK,40.1845005,44.48016223,Tsitsernakaberd Highway,Armenia,Yerevan,,,Nominatim,,,,,,,"['B5599', 'B5600', 'B5601', 'B5602', 'B5603', 'B5604', 'B5605', 'B5606', 'B5607', 'B5608', 'B5609', 'B5610', 'B5611', 'B5612', 'B5613', 'B5614', 'B5615', 'B5616', 'B5617', 'B5618', 'B5619', 'B5620', 'B5621', 'B5622', 'B5623', 'B5624', 'B5625', 'B5626', 'B5627', 'B5628', 'B5629', 'B5630', 'B5631', 'B5632', 'B5633', 'B5634', 'B5635', 'B5636', 'B5637', 'B5638', 'B5639', 'B5640', 'B5641', 'B5642', 'B5643', 'B5644', 'B5645', 'B5646', 'B5647', 'B5648', 'B5649', 'B5650', 'B5651', 'B5652', 'B5653', 'B5654', 'B5655', 'B5656', 'B5657', 'B5658', 'B5659', 'B5660', 'B5661', 'B5662', 'B5663', 'B5664']"
1101,"Vardan Mamikonyan street, Tairov","Vardan Mamikonyan Street, Tairov",OK,40.16248393,44.41984283,Vardan Mamikonyan Street,Armenia,,,,Nominatim,,Parakar,,,,,['B5876']
334,"Forest Street, Yerevan","Forest Street, Yerevan",OK,40.203739,44.502406,Vahram Papazyan Street,Armenia,Yerevan,,,Nominatim,,,,,,,"['B1734', 'B1735', 'B1736', 'B1737', 'B1738', 'B1739', 'B1740', 'B1741', 'B1742', 'B1743']"
834,"Papazyan St, Yerevan","Papazyan Street, Yerevan",OK,40.2042452,44.50217975,Vahram Papazyan Street,Armenia,Yerevan,,,Nominatim,,,,,,,"['B4391', 'B4392', 'B4393']"
835,"Papazyan, st","Papazyan, Street",OK,40.2057449,44.5014871,Vahram Papazyan Street,Armenia,,,,Nominatim,22a,,,,,,"['B4394', 'B4395', 'B4396', 'B4397', 'B4398', 'B4399', 'B4400', 'B4401', 'B4402']"
1097,"Vahram Papazyan street 11/1, Yerevan","Vahram Papazyan Street 11/1, Yerevan",OK,40.1986151,44.50633655,Vahram Papazyan Street,Armenia,Yerevan,,,Nominatim,11/1,,,,,,['B5848']
1098,"Vahram Papazyan street 12, Yerevan","Vahram Papazyan Street 12, Yerevan",OK,40.2026747,44.50359273,Vahram Papazyan Street,Armenia,Yerevan,,,Nominatim,12,,,,,,['B5849']
1099,"Vahram Papazyan street 17, Yerevan","Vahram Papazyan Street 17, Yerevan",OK,40.2026853,44.50301815,Vahram Papazyan Street,Armenia,Yerevan,,,Nominatim,17,,,,,,"['B5850', 'B5851']"
1100,"Vahram Papazyan street, Yerevan","Vahram Papazyan Street, Yerevan",OK,40.20837752,44.49944942,Vahram Papazyan Street,Armenia,Yerevan,,,Nominatim,,,,,,,"['B5852', 'B5853', 'B5854', 'B5855', 'B5856', 'B5857', 'B5858', 'B5859', 'B5860', 'B5861', 'B5862', 'B5863', 'B5864', 'B5865', 'B5866', 'B5867', 'B5868', 'B5869', 'B5870', 'B5871', 'B5872', 'B5873', 'B5874', 'B5875']"
1796,"Վահրամ Փափազյան փողոց 118/1, Երևան","118/1 Vahram Papazyan Street, Yerevan",OK,40.2089465,44.499027,Vahram Papazyan Street,Armenia,Yerevan,,,Nominatim,,,,,,,['B8031']
1797,"Վահրամ Փափազյան փողոց, Yerevan","Vahram Papazyan Street, Yerevan",OK,40.20837752,44.49944942,Vahram Papazyan Street,Armenia,Yerevan,,,Nominatim,,,,,,,"['B8032', 'B8033', 'B8034']"
1055,"Totovents lane, Yerevan","Totovents Lane, Yerevan",OK,40.20239199,44.56878762,Vahan Totovents Street Lane,Armenia,Yerevan,,,Nominatim,,,2,Nor Nork Block,,,['B5474']
1056,"Totovents street, Yerevan","Totovents Street, Yerevan",OK,40.20239199,44.56878762,Vahan Totovents Street Lane,Armenia,Yerevan,,,Nominatim,,,2,Nor Nork Block,,,"['B5475', 'B5476', 'B5477']"
1251,"Улица Вагана Теряна, Гюмри","Vahan Teryan Street, Gyumri",OK,40.78100143,43.84127759,Vahan Teryan Street,Armenia,Shirak,Gyumri,Gyumri,Nominatim,,,,,,,['B7244']
1794,"Վահան Տերյանի փողոց 95/6, Գյումրի","95/6 Vahan Teryan Street, Gyumri",OK,40.78100143,43.84127759,Vahan Teryan Street,Armenia,Shirak,Gyumri,Gyumri,Nominatim,,,,,,,"['B8027', 'B8028', 'B8029']"
1795,"Վահան Տերյանի փողոց 98, Գյումրի","98 Vahan Teryan Street, Gyumri",OK,40.78100143,43.84127759,Vahan Teryan Street,Armenia,Shirak,Gyumri,Gyumri,Nominatim,,,,,,,['B8030']
1814,"Տերյան փողոց 137, Գյումրի","137 Teryan Street, Gyumri",OK,40.7807126,43.8525718,Vahan Teryan Street,Armenia,Shirak,Gyumri,Gyumri,Nominatim,137/1,,,,,,['B8055']
1793,"Վահան Տերյանի 1-ին փողոց, Առինջ","Vahan Teryan 1st Street, Arinj",OK,40.218718,44.589191,Vahan Teryan Street,Armenia,,Abovyan,Arinj,Yandex,,Village of Arinj,,,,1st,['B8026']
1023,"Teryan stret, Vanadzor","Teryan Street, Vanadzor",OK,40.811733,44.483136,Vahan Teryan Street,Armenia,Lori,Vanadzor,,Yandex,,,,,,,['B5382']
1096,"Vahagn Davtiyan Street 1/4, Yerevan","Vahagn Davtiyan Street 1/4, Yerevan",OK,40.196148,44.513436,Vahagn Davtyan Street,Armenia,Yerevan,,,Yandex,1/4,,,,,,['B5847']
1095,"Vahagn Davtian Street, Yerevan","Vahagn Davtian Street, Yerevan",OK,40.2005666,44.51148992,Vahagn Davtian Street,Armenia,Yerevan,,,Nominatim,,,,,,,"['B5843', 'B5844', 'B5845', 'B5846']"
1092,"Vagharsh Vagharshyan street 24, Yerevan","Vagharsh Vagharshyan Street 24, Yerevan",OK,40.2044154,44.497897,Vagharsh Vagharshyan Street,Armenia,Yerevan,,,Nominatim,24,,,,,,['B5813']
1093,"Vagharsh Vagharshyan street, Yerevan","Vagharsh Vagharshyan Street, Yerevan",OK,40.2073708,44.49541325,Vagharsh Vagharshyan Street,Armenia,Yerevan,,,Nominatim,,,,,,,"['B5814', 'B5815', 'B5816', 'B5817', 'B5818', 'B5819', 'B5820', 'B5821', 'B5822', 'B5823', 'B5824', 'B5825', 'B5826', 'B5827', 'B5828', 'B5829', 'B5830', 'B5831', 'B5832', 'B5833']"
1094,"Vagharsh Vagharshyan street, Երևան","Vagharsh Vagharshyan Street, Yerevan",OK,40.2073708,44.49541325,Vagharsh Vagharshyan Street,Armenia,Yerevan,,,Nominatim,,,,,,,"['B5834', 'B5835', 'B5836', 'B5837', 'B5838', 'B5839', 'B5840', 'B5841', 'B5842']"
1252,"Улица Вагарша Вагаршяна 22, Ереван","Vagarsha Vagarshyana Street, Yerevan",OK,40.20237825,44.49930415,Vagharsh Vagharshyan Street,Armenia,Yerevan,,,Nominatim,22,,,,,,['B7245']
1504,"Լենինի փողոց 10, Նշավան","Lenin Street 10, Nshavan",OK,40.0263871,44.5241531,V. Lenin Street,Armenia,,Artashat,Nshavan,Nominatim,10,Nshavan,,,,,['B7563']
1072,"Tsitsernakaberd Highway, Երևան","Tsitsernakaberd Highway, Yerevan",OK,40.1845005,44.48016223,Tsitsernakaberd Highway,Armenia,Yerevan,,,Nominatim,,,,,,,"['B5665', 'B5666', 'B5667', 'B5668', 'B5669', 'B5670']"
1090,"Usanogakan street, Dilijan station","Usanogakan Street, Dilijan Station",OK,40.751786,44.872331,Usanogakan Street,Armenia,Tavush,Dilijan,,Yandex,,,,,,,['B5811']
1091,"Usanogakan street, Vanadzor","Usanogakan Street, Vanadzor",OK,40.79749307,44.51887685,Usanogakan Street,Armenia,Lori,Vanadzor,,Nominatim,,,Dimats,,,,['B5812']
1712,"Ուսանողական փողոց, Վանաձոր","Student Street, Vanadzor",OK,40.79749307,44.51887685,Usanogakan Street,Armenia,Lori,Vanadzor,,Nominatim,,,Dimats,,,,['B7895']
1348,"Улица Уренинер 8, Касах","Ureniner Street 8, Kasakh",OK,40.22701335,44.45283225,Ureninery Street,Armenia,,Nairi,Kasakh,Nominatim,8,Kasakh,,,,,['B7350']
1077,"Tumanyan street 18, Kapan","Tumanyan Street 18, Kapan",OK,39.20707985,46.3983422,Tumanyan Street,Armenia,Lori,Tumanyan,Tumanyan,Nominatim,18,,,,,,"['B5677', 'B5678']"
1082,"Tumanyan street 4, Vanadzor","Tumanyan Street 4, Vanadzor",OK,40.8059978,44.49766105,Tumanyan Street,Armenia,Lori,Tumanyan,Tumanyan,Nominatim,4,,,,,,['B5684']
1087,"Tumanyan street, Gyumri","Tumanyan Street, Gyumri",OK,40.78311788,43.8497648,Tumanyan Street,Armenia,Lori,Tumanyan,Tumanyan,Nominatim,,,,,,,['B5690']
1498,"Թումանյան փողոց 110, Գյումրի","110 Tumanyan Street, Gyumri",OK,40.78273245,43.85223874,Tumanyan Street,Armenia,Lori,Tumanyan,Tumanyan,Nominatim,110,,,,,,['B7541']
1501,"Թումանյան փողոց 6Ա, Վանաձոր","6a Tumanyan Street, Vanadzor",OK,40.80730433,44.49732989,Tumanyan Street,Armenia,Lori,Tumanyan,Tumanyan,Nominatim,,,,,,,['B7559']
447,"Hovhannes Tumanyan Street 33, Yerevan","Hovhannes Tumanyan Street 33, Yerevan",OK,40.186496,44.511415,Tumanyan Street,Armenia,Yerevan,Tumanyan,,Yandex,33,,,,,,['B2111']
1074,"Tumanyan street 1, Yerevan","Tumanyan Street 1, Yerevan",OK,40.1784705,44.52252983,Tumanyan Street,Armenia,Yerevan,Tumanyan,,Nominatim,1,,,,,,"['B5672', 'B5673']"
1075,"Tumanyan street 11, Yerevan","Tumanyan Street 11, Yerevan",OK,40.1802412,44.52009641,Tumanyan Street,Armenia,Yerevan,Tumanyan,,Nominatim,11,,,,,,['B5674']
1076,"Tumanyan street 11a, Yerevan","Tumanyan Street 11a, Yerevan",OK,40.18028535,44.51940922,Tumanyan Street,Armenia,Yerevan,Tumanyan,,Nominatim,11a,,,,,,"['B5675', 'B5676']"
1078,"Tumanyan street 3, Yerevan","Tumanyan Street 3, Yerevan",OK,40.1788123,44.5221409,Tumanyan Street,Armenia,Yerevan,Tumanyan,,Nominatim,3,,,,,,['B5679']
1079,"Tumanyan street 31, Yerevan","Tumanyan Street 31, Yerevan",OK,40.1858786,44.5122241,Tumanyan Street,Armenia,Yerevan,Tumanyan,,Nominatim,31,,,,,,"['B5680', 'B5681']"
1080,"Tumanyan street 35, Yerevan","Tumanyan Street 35, Yerevan",OK,40.18672185,44.51106313,Tumanyan Street,Armenia,Yerevan,Tumanyan,,Nominatim,35,,,,,,['B5682']
1081,"Tumanyan street 39, Yerevan","Tumanyan Street 39, Yerevan",OK,40.1871677,44.51042478,Tumanyan Street,Armenia,Yerevan,Tumanyan,,Nominatim,39,,,,,,['B5683']
1083,"Tumanyan street 40, Yerevan","Tumanyan Street 40, Yerevan",OK,40.18666985,44.51195337,Tumanyan Street,Armenia,Yerevan,Tumanyan,,Nominatim,40,,,,,,['B5685']
1084,"Tumanyan street 41, Yerevan","Tumanyan Street 41, Yerevan",OK,40.187306,44.51026151,Tumanyan Street,Armenia,Yerevan,Tumanyan,,Nominatim,41,,,,,,['B5686']
1085,"Tumanyan street 5, Yerevan","Tumanyan Street 5, Yerevan",OK,40.17923445,44.52145886,Tumanyan Street,Armenia,Yerevan,Tumanyan,,Nominatim,5,,,,,,"['B5687', 'B5688']"
1086,"Tumanyan street 9, Yerevan","Tumanyan Street 9, Yerevan",OK,40.1797894,44.52046368,Tumanyan Street,Armenia,Yerevan,Tumanyan,,Nominatim,9,,,,,,['B5689']
1088,"Tumanyan street, Yerevan","Tumanyan Street, Yerevan",OK,40.1849662,44.5138938,Tumanyan Street,Armenia,Yerevan,Tumanyan,,Nominatim,,,,,,,"['B5691', 'B5692', 'B5693', 'B5694', 'B5695', 'B5696', 'B5697', 'B5698', 'B5699', 'B5700', 'B5701', 'B5702', 'B5703', 'B5704', 'B5705', 'B5706', 'B5707', 'B5708', 'B5709', 'B5710', 'B5711', 'B5712', 'B5713', 'B5714', 'B5715', 'B5716', 'B5717', 'B5718', 'B5719', 'B5720', 'B5721', 'B5722', 'B5723', 'B5724', 'B5725', 'B5726', 'B5727', 'B5728', 'B5729', 'B5730', 'B5731', 'B5732', 'B5733', 'B5734', 'B5735', 'B5736', 'B5737', 'B5738', 'B5739', 'B5740', 'B5741', 'B5742', 'B5743', 'B5744', 'B5745', 'B5746', 'B5747', 'B5748', 'B5749', 'B5750', 'B5751', 'B5752', 'B5753', 'B5754', 'B5755', 'B5756', 'B5757', 'B5758', 'B5759', 'B5760', 'B5761', 'B5762', 'B5763', 'B5764', 'B5765', 'B5766', 'B5767', 'B5768', 'B5769', 'B5770', 'B5771', 'B5772', 'B5773', 'B5774', 'B5775', 'B5776', 'B5777', 'B5778', 'B5779', 'B5780', 'B5781', 'B5782', 'B5783', 'B5784', 'B5785', 'B5786', 'B5787', 'B5788', 'B5789', 'B5790', 'B5791', 'B5792', 'B5793', 'B5794', 'B5795', 'B5796', 'B5797', 'B5798', 'B5799', 'B5800', 'B5801', 'B5802', 'B5803', 'B5804', 'B5805', 'B5806', 'B5807', 'B5808']"
1089,"Tumanyan Street, Երևան","Tumanyan Street, Yerevan",OK,40.1849662,44.5138938,Tumanyan Street,Armenia,Yerevan,Tumanyan,,Nominatim,,,,,,,"['B5809', 'B5810']"
1499,"Թումանյան փողոց 11Ա, Երևան","11a Tumanyan Street, Yerevan",OK,40.18028535,44.51940922,Tumanyan Street,Armenia,Yerevan,Tumanyan,,Nominatim,11a,,,,,,"['B7542', 'B7543']"
1500,"Թումանյան փողոց 5Ա, Երևան","5a Tumanyan Street, Yerevan",OK,40.1793234,44.52126967,Tumanyan Street,Armenia,Yerevan,Tumanyan,,Nominatim,5a,,,,,,"['B7544', 'B7545', 'B7546', 'B7547', 'B7548', 'B7549', 'B7550', 'B7551', 'B7552', 'B7553', 'B7554', 'B7555', 'B7556', 'B7557', 'B7558']"
1561,"Հովհաննես Թումանյանի փողոց 1, Երևան","1 Hovhannes Tumanyan Street, Yerevan",OK,40.178545,44.522509,Tumanyan Street,Armenia,Yerevan,Tumanyan,,Yandex,1,,,,,,"['B7642', 'B7643', 'B7644']"
1562,"Հովհաննես Թումանյանի փողոց 11Ա, Երևան","11a Hovhannes Tumanyan Street, Yerevan",OK,40.180295,44.51941,Tumanyan Street,Armenia,Yerevan,Tumanyan,,Yandex,11A,,,,,,['B7645']
1563,"Հովհաննես Թումանյանի փողոց 40, Երևան","40 Hovhannes Tumanyan Street, Yerevan",OK,40.186675,44.511873,Tumanyan Street,Armenia,Yerevan,Tumanyan,,Yandex,40,,,,,,['B7646']
1564,"Հովհաննես Թումանյանի փողոց 5Ա, Երևան","5a Hovhannes Tumanyan Street, Yerevan",OK,40.179461,44.521332,Tumanyan Street,Armenia,Yerevan,Tumanyan,,Yandex,5A,,,,,,"['B7647', 'B7648']"
1073,"Tskhakhotagortsneri street 50, Yerevan","Tskhakhotagortsneri Street 50, Yerevan",OK,40.16098165,44.51906361,Tskhakhotagortsneri Street,Armenia,Yerevan,,,Nominatim,50,,,,,,['B5671']
1359,"Цицернакабердское шоссе 1/2, Ереван","Tsitsernakaberd Highway 1/2, Yerevan",OK,40.178662,44.489334,Tsitsernakaberd Highway,Armenia,Yerevan,,,Yandex,1/2,,,,,,['B7365']
1360,"Цицернакабердское шоссе 1/3, Ереван","Tsitsernakaberd Highway 1/3, Yerevan",OK,40.179289,44.489747,Tsitsernakaberd Highway,Armenia,Yerevan,,,Yandex,1/3,,,,,,['B7366']
1518,"Ծիծեռնակաբերդի խճուղի, Երևան","Tsitsernakaberd Highway, Yerevan",OK,40.1845005,44.48016223,Tsitsernakaberd Highway,Armenia,Yerevan,,,Nominatim,,,,,,,['B7590']
1069,"Tsitsernakaberd Highway 1/2, Yerevan","Tsitsernakaberd Highway 1/2, Yerevan",OK,40.1786838,44.489393,Tsitsernakaberd Highway,Armenia,Yerevan,,,Nominatim,1/2,,,,,,"['B5596', 'B5597']"
1070,"Tsitsernakaberd Highway 1/3, Yerevan","Tsitsernakaberd Highway 1/3, Yerevan",OK,40.17934115,44.48982438,Tsitsernakaberd Highway,Armenia,Yerevan,,,Nominatim,1/3,,,,,,['B5598']
1497,"Թոթովենց նրբանցք 3/2, Երևան","3/2 Totovents Alley, Yerevan",OK,40.202423,44.570739,Totoventsa Lane,Armenia,Yerevan,,,Yandex,3/2,,,,,,['B7540']
1043,"Tigran Mets avenue 3rd lane, Yerevan","Tigran Mets Avenue 3rd Lane, Yerevan",OK,40.15837816,44.50913886,Tigran Mets Avenue,Armenia,Yerevan,,,Nominatim,,,,,3rd Lane,,['B5417']
1068,"Tsaturyan Street, Yerevan","Tsaturyan Street, Yerevan",OK,40.16285041,44.51769667,Tsaturyan Street,Armenia,Yerevan,,,Nominatim,,,,,,,['B5595']
1067,"Tsarav Aghbyuri Street, Yerevan","Tsarav Aghbyuri Street, Yerevan",OK,40.21820569,44.55514096,Tsarav Aghbyuri Street,Armenia,Yerevan,,,Nominatim,,,,,,,"['B5503', 'B5504', 'B5505', 'B5506', 'B5507', 'B5508', 'B5509', 'B5510', 'B5511', 'B5512', 'B5513', 'B5514', 'B5515', 'B5516', 'B5517', 'B5518', 'B5519', 'B5520', 'B5521', 'B5522', 'B5523', 'B5524', 'B5525', 'B5526', 'B5527', 'B5528', 'B5529', 'B5530', 'B5531', 'B5532', 'B5533', 'B5534', 'B5535', 'B5536', 'B5537', 'B5538', 'B5539', 'B5540', 'B5541', 'B5542', 'B5543', 'B5544', 'B5545', 'B5546', 'B5547', 'B5548', 'B5549', 'B5550', 'B5551', 'B5552', 'B5553', 'B5554', 'B5555', 'B5556', 'B5557', 'B5558', 'B5559', 'B5560', 'B5561', 'B5562', 'B5563', 'B5564', 'B5565', 'B5566', 'B5567', 'B5568', 'B5569', 'B5570', 'B5571', 'B5572', 'B5573', 'B5574', 'B5575', 'B5576', 'B5577', 'B5578', 'B5579', 'B5580', 'B5581', 'B5582', 'B5583', 'B5584', 'B5585', 'B5586', 'B5587', 'B5588', 'B5589', 'B5590', 'B5591', 'B5592', 'B5593', 'B5594']"
1065,"Tsarav Aghbyur St , Yerevan","Tsarav Aghbyur Street , Yerevan",OK,40.21913087,44.54421379,Tsarav Aghbyur Street,Armenia,Yerevan,,,Nominatim,,,,,,,['B5501']
1066,"Tsarav Aghbyur St, Yerevan","Tsarav Aghbyur Street, Yerevan",OK,40.21913087,44.54421379,Tsarav Aghbyur Street,Armenia,Yerevan,,,Nominatim,,,,,,,['B5502']
1816,"Տիգրան Մեծ պողոտա 35, Երևան","35 Tigran Mets Avenue, Yerevan",OK,40.15739823,44.50954507,Tigran Mets Avenue,Armenia,Yerevan,,,Nominatim,,,,,2nd Deadlock,,['B8057']
1347,"Улица Трдата Чартарапета, Гюмри","Trdata Chartarapet Street, Gyumri",OK,40.823751,43.828273,Trdat Chartarapet Street,Armenia,Shirak,Gyumri,Gyumri,Yandex,,,,,,,"['B7347', 'B7348', 'B7349']"
1058,"Trdat Architector street 18, Gyumri","Trdat Architector Street 18, Gyumri",OK,40.8241905,43.82698149,Trdat Architector Street,Armenia,Shirak,Gyumri,Gyumri,Nominatim,18,,Ani District,,,,"['B5481', 'B5482']"
1059,"Trdat Architector street 30, Gyumri","Trdat Architector Street 30, Gyumri",OK,40.82426265,43.82476591,Trdat Architector Street,Armenia,Shirak,Gyumri,Gyumri,Nominatim,30,,Ani District,,,,['B5483']
1060,"Trdat Architector street 36, Gyumri","Trdat Architector Street 36, Gyumri",OK,40.8244861,43.82289397,Trdat Architector Street,Armenia,Shirak,Gyumri,Gyumri,Nominatim,36,,Ani District,,,,['B5484']
1061,"Trdat Architector street 8Ա, Gyumri",,OK,40.82427765,43.8304195,Trdat Architector Street,Armenia,Shirak,Gyumri,Gyumri,Nominatim,8a,,Ani District,,,,['B5485']
1062,"Trdat Architector street 8ա, Gyumri",,OK,40.82427765,43.8304195,Trdat Architector Street,Armenia,Shirak,Gyumri,Gyumri,Nominatim,8a,,Ani District,,,,['B5486']
1063,"Trdat Architector street 9, Gyumri","Trdat Architector Street 9, Gyumri",OK,40.8236039,43.8258285,Trdat Architector Street,Armenia,Shirak,Gyumri,Gyumri,Nominatim,9,,Ani District,,,,['B5487']
1064,"Trdat Architector street, Gyumri","Trdat Architector Street, Gyumri",OK,40.82373621,43.8291318,Trdat Architector Street,Armenia,Shirak,Gyumri,Gyumri,Nominatim,,,Ani District,,,,"['B5488', 'B5489', 'B5490', 'B5491', 'B5492', 'B5493', 'B5494', 'B5495', 'B5496', 'B5497', 'B5498', 'B5499', 'B5500']"
1346,"Улица Трдата Строителя, Гюмри","Trdata Stroitela Street, Gyumri",OK,40.82373621,43.8291318,Trdat Architector Street,Armenia,Shirak,Gyumri,Gyumri,Nominatim,,,Ani District,,,,['B7346']
1826,"Տրդատ Ճարտարապետի փողոց 13/1, Գյումրի","13/1 Trdat Chartarapet Street, Gyumri",OK,40.8232363,43.82434205,Trdat Architector Street,Armenia,Shirak,Gyumri,Gyumri,Nominatim,13/1,,Ani District,,,,['B8068']
1827,"Տրդատ Ճարտարապետի փողոց 15, Գյումրի","15 Trdat Chartarapet Street, Gyumri",OK,40.8232471,43.82382132,Trdat Architector Street,Armenia,Shirak,Gyumri,Gyumri,Nominatim,15,,Ani District,,,,['B8069']
1828,"Տրդատ Ճարտարապետի փողոց 32А, Գյումրի","32a Trdat Chartarapet Street, Gyumri",OK,40.82460215,43.823863,Trdat Architector Street,Armenia,Shirak,Gyumri,Gyumri,Nominatim,32a,,Ani District,,,,['B8070']
1829,"Տրդատ Ճարտարապետի փողոց 5/4, Գյումրի","5/4 Trdat Chartarapet Street, Gyumri",OK,40.82287605,43.82712992,Trdat Architector Street,Armenia,Shirak,Gyumri,Gyumri,Nominatim,5/4,,Ani District,,,,['B8071']
1830,"Տրդատ Ճարտարապետի փողոց 7/1, Գյումրի","7/1 Trdat Chartarapet Street, Gyumri",OK,40.8235665,43.8266385,Trdat Architector Street,Armenia,Shirak,Gyumri,Gyumri,Nominatim,7/1,,Ani District,,,,['B8072']
1057,"Tpagrichner Street, Yerevan","Tpagrichner Street, Yerevan",OK,40.17752822,44.52012018,Tpagrichner Street,Armenia,Yerevan,,,Nominatim,,,,,,,"['B5478', 'B5479', 'B5480']"
1825,"Տպագրիչների փողոց 9, Վանաձոր","9 Tpagrichneri Street, Vanadzor",OK,40.80658215,44.48685975,Tpagrichner Street,Armenia,Lori,Vanadzor,,Nominatim,9,,,,,,['B8067']
1817,"Տիգրան Մեծ պողոտա, Երևան","Tigran Mets Avenue, Yerevan",OK,40.15739823,44.50954507,Tigran Mets Avenue,Armenia,Yerevan,,,Nominatim,,,,,2nd Deadlock,,['B8058']
1054,"Tolbukhin street, Yerevan","Tolbukhin Street, Yerevan",OK,40.20967958,44.52689397,Tolbukhin Street,Armenia,Yerevan,,,Nominatim,,,,,,,"['B5472', 'B5473']"
1053,"Titogradyan St, Yerevan","Titogradyan Street, Yerevan",OK,40.13089491,44.52443781,Titogradian Street,Armenia,Yerevan,,,Nominatim,,,,,,,['B5471']
1052,"Tigranyan street, Vanadzor","Tigranyan Street, Vanadzor",OK,40.81007906,44.46894114,Tigranyan Street,Armenia,Lori,Vanadzor,,Nominatim,,,,,,,['B5470']
1051,"Tigran Petrosyan street, Yerevan","Tigran Petrosyan Street, Yerevan",OK,40.22361502,44.50342188,Tigran Petrosyan Street,Armenia,Yerevan,,,Nominatim,,,,Davidashen 4th Block,,,"['B5464', 'B5465', 'B5466', 'B5467', 'B5468', 'B5469']"
1824,"Տիգրան Պետրոսյան փողոց 1/7, Երևան","Tigran Petrosyan Street 1/7, Yerevan",OK,40.21743745,44.48696149,Tigran Petrosyan Street,Armenia,Yerevan,,,Nominatim,1/7,,,,,,['B8066']
1345,"Улица Тиграна Меца, Аштарак","Tigrana Metsa Street, Ashtarak",OK,40.28432835,44.35774468,Tigran Mets Street,Armenia,,,,Nominatim,,,,,,,['B7345']
1822,"Տիգրան Մեծի փողոց 46, Աշտարակ","46 Tigran Mets Street, Ashtarak",OK,40.2841218,44.35812422,Tigran Mets Street,Armenia,,,,Nominatim,46,,,,,,['B8063']
1823,"Տիգրան Մեծի փողոց, Աշտարակ","Tigran Mets Street, Ashtarak",OK,40.28432835,44.35774468,Tigran Mets Street,Armenia,,,,Nominatim,,,,,,,"['B8064', 'B8065']"
1032,"Tigran Mets Avenue 1st lane, Yerevan","Tigran Mets Avenue 1st Lane, Yerevan",OK,40.16250346,44.5148531,Tigran Mets Avenue,Armenia,Yerevan,,,Nominatim,,,,,1st Lane,,['B5401']
1033,"Tigran Mets Avenue 2, Gyumri","Tigran Mets Avenue 2, Gyumri",OK,40.7918195,43.84738198,Tigran Mets Avenue,Armenia,Shirak,Gyumri,Gyumri,Nominatim,2,,,,,,"['B5402', 'B5403', 'B5404']"
1048,"Tigran Mets Avenue, Gyumri","Tigran Mets Avenue, Gyumri",OK,40.790422,43.85222325,Tigran Mets Avenue,Armenia,Shirak,Gyumri,Gyumri,Nominatim,,,,,,,"['B5422', 'B5423']"
1232,"Проспект Тигран Мец 8, Гюмри","Tigran Mets Avenue 8, Gyumri",OK,40.785273,43.841774,Tigran Mets Avenue,Armenia,Shirak,Gyumri,Gyumri,Yandex,8,,,,,,['B7223']
1233,"Проспект Тиграна Меца 19, Гюмри","19 Tigran Metsa Avenue, Gyumri",OK,40.78993685,43.85434669,Tigran Mets Avenue,Armenia,Shirak,Gyumri,Gyumri,Nominatim,19,,,,,,['B7224']
1820,"Տիգրան Մեծի պողոտա 8Ա, Գյումրի","8a Tigran Mets Avenue, Gyumri",OK,40.7904246,43.85127838,Tigran Mets Avenue,Armenia,Shirak,Gyumri,Gyumri,Nominatim,8a,,,,,,['B8061']
1821,"Տիգրան Մեծի պողոտա, Գյումրի","Tigran Mets Avenue, Gyumri",OK,40.790422,43.85222325,Tigran Mets Avenue,Armenia,Shirak,Gyumri,Gyumri,Nominatim,,,,,,,['B8062']
1030,"Tigran Mets Avenu, Yerevan","Tigran Mets Avenue, Yerevan",OK,40.166182,44.513112,Tigran Mets Avenue,Armenia,Yerevan,,,Yandex,,,,,,,"['B5390', 'B5391', 'B5392', 'B5393', 'B5394', 'B5395', 'B5396', 'B5397', 'B5398', 'B5399']"
1031,"Tigran Mets Avenue 10, Yerevan","Tigran Mets Avenue 10, Yerevan",OK,40.1744771,44.51327309,Tigran Mets Avenue,Armenia,Yerevan,,,Nominatim,10,,,,,,['B5400']
1034,"Tigran Mets Avenue 26, Yerevan","Tigran Mets Avenue 26, Yerevan",OK,40.16713145,44.5121773,Tigran Mets Avenue,Armenia,Yerevan,,,Nominatim,26,,,,,,['B5405']
1035,"Tigran Mets Avenue 27, Yerevan","Tigran Mets Avenue 27, Yerevan",OK,40.1703179,44.5137881,Tigran Mets Avenue,Armenia,Yerevan,,,Nominatim,27,,,,,,['B5406']
1036,"Tigran Mets Avenue 27/1, Yerevan","Tigran Mets Avenue 27/1, Yerevan",OK,40.17042225,44.51431115,Tigran Mets Avenue,Armenia,Yerevan,,,Nominatim,27/1,,,,,,['B5407']
1037,"Tigran Mets Avenue 29a, Yerevan","Tigran Mets Avenue 29a, Yerevan",OK,40.16963975,44.51465148,Tigran Mets Avenue,Armenia,Yerevan,,,Nominatim,29a,,,,,,['B5408']
1038,"Tigran Mets Avenue 34, Vanadzor","Tigran Mets Avenue 34, Vanadzor",OK,40.80902765,44.48935597,Tigran Mets Avenue,Armenia,Lori,Vanadzor,,Nominatim,34,,,,,,"['B5409', 'B5410']"
1040,"Tigran Mets Avenue 36a, Yerevan","Tigran Mets Avenue 36a, Yerevan",OK,40.1645392,44.51196181,Tigran Mets Avenue,Armenia,Yerevan,,,Nominatim,36a,,,,,,"['B5412', 'B5413', 'B5414']"
1041,"Tigran Mets Avenue 38, Vanadzor","Tigran Mets Avenue 38, Vanadzor",OK,40.80862915,44.49167539,Tigran Mets Avenue,Armenia,Lori,Vanadzor,,Nominatim,38,,,,,,['B5415']
1042,"Tigran Mets Avenue 39, Yerevan","Tigran Mets Avenue 39, Yerevan",OK,40.16596585,44.51343893,Tigran Mets Avenue,Armenia,Yerevan,,,Nominatim,39,,,,,,['B5416']
1044,"Tigran Mets Avenue 50, Vanadzor","Tigran Mets Avenue 50, Vanadzor",OK,40.8074639,44.4960694,Tigran Mets Avenue,Armenia,Lori,Vanadzor,,Nominatim,50,,,,,,['B5418']
1045,"Tigran Mets Avenue 56, Vanadzor","Tigran Mets Avenue 56, Vanadzor",OK,40.8062591,44.49631675,Tigran Mets Avenue,Armenia,Lori,Vanadzor,,Nominatim,56,,,,,,['B5419']
1046,"Tigran Mets Avenue 59, Vanadzor","Tigran Mets Avenue 59, Vanadzor",OK,40.8104393,44.48873157,Tigran Mets Avenue,Armenia,Lori,Vanadzor,,Nominatim,59,,,,,,['B5420']
1047,"Tigran Mets Avenue 75, Vanadzor","Tigran Mets Avenue 75, Vanadzor",OK,40.8087242,44.49360086,Tigran Mets Avenue,Armenia,Lori,Vanadzor,,Nominatim,75,,,,,,['B5421']
1049,"Tigran Mets Avenue, Vanadzor","Tigran Mets Avenue, Vanadzor",OK,40.8076548,44.4961571,Tigran Mets Avenue,Armenia,Lori,Vanadzor,,Nominatim,,,,,,,"['B5424', 'B5425', 'B5426', 'B5427', 'B5428', 'B5429', 'B5430', 'B5431', 'B5432']"
1818,"Տիգրան Մեծ պողոտա, Վանաձոր","Tigran Mets Avenue, Vanadzor",OK,40.810948,44.486037,Tigran Mets Avenue,Armenia,Lori,Vanadzor,,Yandex,,,,,,,['B8059']
1819,"Տիգրան Մեծի պողոտա 20/1Ա, Վանաձոր","Tigran Mets Avenue 20/1a, Vanadzor",OK,40.8110128,44.4841705,Tigran Mets Avenue,Armenia,Lori,Vanadzor,,Nominatim,20/1A,,,,,,['B8060']
1026,"Tigran Mets Ave , Yerevan","Tigran Mets Avenue , Yerevan",OK,40.15537595,44.51040725,Tigran Mets Avenue,Armenia,Yerevan,,,Nominatim,,,,,,,['B5386']
1027,"Tigran Mets Ave 27, Vanadzor","Tigran Mets Avenue 27, Vanadzor",OK,40.81238045,44.48223325,Tigran Mets Avenue,Armenia,Lori,Vanadzor,,Nominatim,27,,,,,,['B5387']
1028,"Tigran Mets Ave 29a, Yerevan","Tigran Mets Avenue 29a, Yerevan",OK,40.16963975,44.51465148,Tigran Mets Avenue,Armenia,Yerevan,,,Nominatim,29a,,,,,,['B5388']
1029,"Tigran Mets Ave, Yerevan","Tigran Mets Avenue, Yerevan",OK,40.15537595,44.51040725,Tigran Mets Avenue,Armenia,Yerevan,,,Nominatim,,,,,,,['B5389']
1039,"Tigran Mets Avenue 36, Yerevan","Tigran Mets Avenue 36, Yerevan",OK,40.15965845,44.51268725,Tigran Mets Avenue,Armenia,Yerevan,,,Nominatim,59/36,,,,,,['B5411']
1050,"Tigran Mets Avenue, Yerevan","Tigran Mets Avenue, Yerevan",OK,40.15537595,44.51040725,Tigran Mets Avenue,Armenia,Yerevan,,,Nominatim,,,,,,,"['B5433', 'B5434', 'B5435', 'B5436', 'B5437', 'B5438', 'B5439', 'B5440', 'B5441', 'B5442', 'B5443', 'B5444', 'B5445', 'B5446', 'B5447', 'B5448', 'B5449', 'B5450', 'B5451', 'B5452', 'B5453', 'B5454', 'B5455', 'B5456', 'B5457', 'B5458', 'B5459', 'B5460', 'B5461', 'B5462', 'B5463']"
1231,"Проспект Тигран Мец 79, Ванадзор","Tigran Mets Avenue 79, Vanadzor",OK,40.811432,44.485283,Tigran Mets Avenue,Armenia,Lori,Vanadzor,,Yandex,79,,,,,,['B7222']
1011,"Tbilisian Highway lane, Yerevan","Tbilisian Highway Lane, Yerevan",OK,40.22586225,44.53886626,Tbilisian Highway Lane,Armenia,Yerevan,,,Nominatim,,,,,,,['B5301']
1010,"Tbilisian Highway 2, Yerevan","Tbilisian Highway 2, Yerevan",OK,40.23571435,44.55581425,Tbilisian Highway,Armenia,Yerevan,,,Nominatim,33/2,,,,,,['B5300']
613,"M-10 13, Tsovazard","M-10 13, Tsovazard",OK,40.4787505,45.0560778,Sevan-Martuni Highway,Armenia,,Gavar,Tsovazard,Nominatim,13,Tsovazard,,,,,['B3206']
1025,"Tichina street, Yerevan","Tichina Street, Yerevan",OK,40.18434668,44.45496055,Tichina Street,Armenia,Yerevan,,,Nominatim,,,,,,,"['B5384', 'B5385']"
1024,"Tevosyan street, Yerevan","Tevosyan Street, Yerevan",OK,40.1849121,44.5772434,Tevosyan Street,Armenia,Yerevan,,,Nominatim,,,Nor Norq,,,,['B5383']
1013,"Teryan street 1, Yerevan","Teryan Street 1, Yerevan",OK,40.1814137,44.5121946,Teryan Street,Armenia,Yerevan,,,Nominatim,1/1,,,,,,['B5303']
1014,"Teryan street 1/1, Yerevan","Teryan Street 1/1, Yerevan",OK,40.18154485,44.51204262,Teryan Street,Armenia,Yerevan,,,Nominatim,1/1,,,,,,['B5304']
1015,"Teryan street 23, Yerevan","Teryan Street 23, Yerevan",OK,40.18284905,44.51422313,Teryan Street,Armenia,Yerevan,,,Nominatim,23,,,,,,['B5305']
1016,"Teryan street 3, Yerevan","Teryan Street 3, Yerevan",OK,40.1815875,44.5128348,Teryan Street,Armenia,Yerevan,,,Nominatim,3,,,,,,"['B5306', 'B5307']"
1017,"Teryan street 42, Yerevan","Teryan Street 42, Yerevan",OK,40.1839731,44.51692295,Teryan Street,Armenia,Yerevan,,,Nominatim,42/1,,,,,,['B5308']
1018,"Teryan street 57, Yerevan","Teryan Street 57, Yerevan",OK,40.1854431,44.5173989,Teryan Street,Armenia,Yerevan,,,Nominatim,57,,,,,,['B5309']
1019,"Teryan street 66, Yerevan","Teryan Street 66, Yerevan",OK,40.18794075,44.52146314,Teryan Street,Armenia,Yerevan,,,Nominatim,66,,,,,,['B5310']
1020,"Teryan street 8, Yerevan","Teryan Street 8, Yerevan",OK,40.18121455,44.5129623,Teryan Street,Armenia,Yerevan,,,Nominatim,8,,,,,,['B5311']
1021,"Teryan street, Yerevan","Teryan Street, Yerevan",OK,40.18898795,44.52182444,Teryan Street,Armenia,Yerevan,,,Nominatim,,,,,,,"['B5312', 'B5313', 'B5314', 'B5315', 'B5316', 'B5317', 'B5318', 'B5319', 'B5320', 'B5321', 'B5322', 'B5323', 'B5324', 'B5325', 'B5326', 'B5327', 'B5328', 'B5329', 'B5330', 'B5331', 'B5332', 'B5333', 'B5334', 'B5335', 'B5336', 'B5337', 'B5338', 'B5339', 'B5340', 'B5341', 'B5342', 'B5343', 'B5344', 'B5345', 'B5346', 'B5347', 'B5348', 'B5349', 'B5350', 'B5351', 'B5352', 'B5353', 'B5354', 'B5355', 'B5356', 'B5357', 'B5358', 'B5359', 'B5360', 'B5361', 'B5362', 'B5363', 'B5364', 'B5365', 'B5366', 'B5367', 'B5368', 'B5369', 'B5370', 'B5371', 'B5372', 'B5373', 'B5374', 'B5375', 'B5376', 'B5377', 'B5378', 'B5379', 'B5380']"
1022,"Teryan Street, Երևան","Teryan Street, Yerevan",OK,40.18898795,44.52182444,Teryan Street,Armenia,Yerevan,,,Nominatim,,,,,,,['B5381']
1344,"Улица Теряна, Yerevan","Teryan Street, Yerevan",OK,40.18898795,44.52182444,Teryan Street,Armenia,Yerevan,,,Nominatim,,,,,,,['B7344']
1815,"Տերյան փողոց, Yerevan","Teryan Street, Yerevan",OK,40.18898795,44.52182444,Teryan Street,Armenia,Yerevan,,,Nominatim,,,,,,,['B8056']
815,"Nork 1st street, Yerevan","Nork 1st Street, Yerevan",OK,40.18872228,44.54719556,Tereza Mirzoyan Street,Armenia,Yerevan,,,Nominatim,,,Norq Marash,,,,['B4146']
1012,"Tekstilagortsneri street, Gyumri","Tekstilagortsneri Street, Gyumri",OK,40.80193545,43.84242965,Tekstilagortsneri Street,Armenia,Shirak,Gyumri,Gyumri,Nominatim,,,,,,,['B5302']
917,"Sayat Nova avenue 1, Gyumri","Sayat Nova Avenue 1, Gyumri",OK,40.7917038,43.8465504,Sayat-nova Avenue,Armenia,Shirak,Gyumri,Gyumri,Nominatim,1,,,,,,"['B4801', 'B4802']"
918,"Sayat Nova avenue 2, Gyumri","Sayat Nova Avenue 2, Gyumri",OK,40.79192035,43.84595958,Sayat-nova Avenue,Armenia,Shirak,Gyumri,Gyumri,Nominatim,2,,,,,,['B4803']
1006,"Tavros 4-th street 1st lane, Vanadzor","Tavros 4th Street 1st Lane, Vanadzor",OK,40.832662,44.446017,Tavros Street,Armenia,Lori,Vanadzor,,Yandex,,,,,1st Deadlock,4th,['B5240']
1809,"Տավրոսի 1-ին փողոց 63, Վանաձոր","63 Tavros 1st Street, Vanadzor",OK,40.8382942,44.4543764,Tavros Street,Armenia,Lori,Vanadzor,,Nominatim,63,,Tavros District,,,1st,['B8047']
1810,"Տավրոսի 1-ին փողոց, Վանաձոր","1st Tavros Street, Vanadzor",OK,40.83307302,44.45248555,Tavros Street,Armenia,Lori,Vanadzor,,Nominatim,,,Tavros District,,,1st,['B8048']
1005,"Taterakan street 2, Vanadzor","Taterakan Street 2, Vanadzor",OK,40.8098659,44.493621,Taterakan Street,Armenia,Lori,Vanadzor,,Nominatim,2,,,,,,['B5239']
1342,"Улица Татеракан 1/1, Ванадзор","Taterakan Street 1/1, Vanadzor",OK,40.81041045,44.49415246,Taterakan Street,Armenia,Lori,Vanadzor,,Nominatim,1/1,,,,,,['B7342']
1343,"Улица Татеракан, Ванадзор","Taterakan Street, Vanadzor",OK,40.80999246,44.4938716,Taterakan Street,Armenia,Lori,Vanadzor,,Nominatim,,,,,,,['B7343']
1004,"Tandzaghbyuri St, Tsaghkadzor","Tandzaghbyuri Street, Tsaghkadzor",OK,40.531104,44.71986,Tandzaghbyuri Street,Armenia,Kotayk,Tsaghkadzor,Tsaghkadzor,Yandex,,,,,,,['B5238']
1341,"Улица Тандзахбюри 2, Цахкадзор","Tandzaghbyuri Street 2, Tsaghkadzor",OK,40.537513,44.716401,Tandzaghbyur Street,Armenia,Kotayk,Tsaghkadzor,Tsaghkadzor,Yandex,2,,,,,,['B7341']
1340,"Улица Таманяна 3, Гюмри","Tamanyan Street 3, Gyumri",OK,40.80444115,43.84400545,Tamanyan Street,Armenia,Shirak,Gyumri,Gyumri,Nominatim,3,,,,,,['B7340']
997,"Tamanyan street 1, Yerevan","Tamanyan Street 1, Yerevan",OK,40.1891037,44.51494921,Tamanyan Street,Armenia,Yerevan,,,Nominatim,1,,,,,,['B5212']
998,"Tamanyan street 2, Yerevan","Tamanyan Street 2, Yerevan",OK,40.18903325,44.51581672,Tamanyan Street,Armenia,Yerevan,,,Nominatim,2,,,,,,"['B5213', 'B5214', 'B5215']"
999,"Tamanyan street 3, Yerevan","Tamanyan Street 3, Yerevan",OK,40.1897833,44.51501454,Tamanyan Street,Armenia,Yerevan,,,Nominatim,3,,,,,,['B5216']
1000,"Tamanyan street 6, Yerevan","Tamanyan Street 6, Yerevan",OK,40.1901511,44.5158755,Tamanyan Street,Armenia,Yerevan,,,Nominatim,6,,,,,,['B5217']
1001,"Tamanyan street 8, Yerevan","Tamanyan Street 8, Yerevan",OK,40.1903099,44.51622425,Tamanyan Street,Armenia,Yerevan,,,Nominatim,8,,,,,,['B5218']
1002,"Tamanyan street, Yerevan","Tamanyan Street, Yerevan",OK,40.18925057,44.5156677,Tamanyan Street,Armenia,Yerevan,,,Nominatim,,,,,,,"['B5219', 'B5220', 'B5221', 'B5222', 'B5223', 'B5224', 'B5225', 'B5226', 'B5227', 'B5228', 'B5229', 'B5230', 'B5231', 'B5232', 'B5233', 'B5234', 'B5235', 'B5236']"
1003,"Tamanyan Street, Երևան","Tamanyan Street, Yerevan",OK,40.18925057,44.5156677,Tamanyan Street,Armenia,Yerevan,,,Nominatim,,,,,,,['B5237']
996,"Tairov street, Yerevan","Tairov Street, Yerevan",OK,40.17197861,44.49838889,Tairov Street,Armenia,Yerevan,,,Nominatim,,,Noragyugh,,,,['B5211']
1495,"Թաիրովի փողոց, Երևան","Tairov Street, Yerevan",OK,40.17197861,44.49838889,Tairov Street,Armenia,Yerevan,,,Nominatim,,,Noragyugh,,,,['B7538']
994,"Syunik St 14, Goris","Syunik Street 14, Goris",OK,39.50610385,46.34158067,Syunik Street,Armenia,Syunik,Goris,Syunik,Nominatim,14,,,,,,['B5209']
1767,"Սյունիքի փողոց 144, Գորիս","144 Syunik Street, Goris",OK,39.5222841,46.3289439,Syunik Street,Armenia,Syunik,Goris,Syunik,Nominatim,144,,,,,,['B7992']
987,"Svachyan street 14, Yerevan","Svachyan Street 14, Yerevan",OK,40.1759763,44.44935895,Svachyan Street,Armenia,Yerevan,,,Nominatim,14,,A-3,,,,['B5193']
988,"Svachyan street 38, Yerevan","Svachyan Street 38, Yerevan",OK,40.17508235,44.44316125,Svachyan Street,Armenia,Yerevan,,,Nominatim,38,,A-1,,,,['B5194']
989,"Svachyan street, Yerevan","Svachyan Street, Yerevan",OK,40.17507777,44.44544308,Svachyan Street,Armenia,Yerevan,,,Nominatim,,,A-1,,,,"['B5195', 'B5196', 'B5197', 'B5198']"
983,"Sundukyan Street, Gyumri","Sundukyan Street, Gyumri",OK,40.78389442,43.8472226,Sundukyan Street,Armenia,Shirak,Gyumri,Gyumri,Nominatim,,,,,,,['B5164']
979,"Sundukyan St, Yerevan","Sundukyan Street, Yerevan",OK,40.1985169,44.49799693,Sundukyan Street,Armenia,Yerevan,,,Nominatim,,,,,,,"['B5155', 'B5156', 'B5157', 'B5158', 'B5159']"
980,"Sundukyan Street 15/4, Yerevan","Sundukyan Street 15/4, Yerevan",OK,40.19924225,44.49947256,Sundukyan Street,Armenia,Yerevan,,,Nominatim,15/4,,,,,,['B5160']
981,"Sundukyan Street 26, Yerevan","Sundukyan Street 26, Yerevan",OK,40.1983851,44.49815108,Sundukyan Street,Armenia,Yerevan,,,Nominatim,26,,,,,,['B5161']
982,"Sundukyan Street 29, Yerevan","Sundukyan Street 29, Yerevan",OK,40.20102615,44.50372433,Sundukyan Street,Armenia,Yerevan,,,Nominatim,29,,,,,,"['B5162', 'B5163']"
984,"Sundukyan Street, Yerevan","Sundukyan Street, Yerevan",OK,40.1985169,44.49799693,Sundukyan Street,Armenia,Yerevan,,,Nominatim,,,,,,,"['B5165', 'B5166', 'B5167', 'B5168', 'B5169', 'B5170', 'B5171', 'B5172', 'B5173', 'B5174', 'B5175', 'B5176', 'B5177', 'B5178', 'B5179', 'B5180', 'B5181', 'B5182', 'B5183', 'B5184', 'B5185', 'B5186', 'B5187']"
978,"Sukhumi street 14, Vanadzor","Sukhumi Street 14, Vanadzor",OK,40.7965275,44.52909661,Sukhumi Street,Armenia,Lori,Vanadzor,,Nominatim,14,,Bazum,,,,['B5154']
702,"Mesrop Mashtotsi St, Vagharshapat","Mesrop Mashtotsi Street, Vagharshapat",OK,41.265034,43.5857666,Street'epan Shaumianis Kucha & Mesrop' Masht'otsis Kucha,Georgia,,,,Azure,,,,,,,"['B3647', 'B3648']"
24,"38-րդ փողոց 23, Զովունի","23 38th Street, Zovuni",OK,40.239151,44.50201434,Street Zovuni,Armenia,,Nairi,Zovuni,Nominatim,,Zovuni,,,,38th,['B31']
1189,"Zovuni 38 street, Zovuni","Zovuni 38 Street, Zovuni",OK,40.239151,44.50201434,Street Zovuni,Armenia,,Nairi,Zovuni,Nominatim,,Zovuni,,,,38th,['B7172']
1391,"Անտառավան 4-րդ փողոց 1, Գյումրի","1 Antaravan 4th Street, Gyumri",OK,40.8122276,43.8487959,Street Antaravan,Armenia,Shirak,Gyumri,Gyumri,Nominatim,1,,,,,4th,['B7401']
1392,"Անտառավան 4-րդ փողոց 1Ա, Գյումրի","1a, Antaravan 4th Street, Gyumri",OK,40.811933,43.8484899,Street Antaravan,Armenia,Shirak,Gyumri,Gyumri,Nominatim,1a,,,,,4th,['B7402']
925,"Sayat Nova avenue, Gyumri","Sayat Nova Avenue, Gyumri",OK,40.79067325,43.84615402,Sayat-nova Avenue,Armenia,Shirak,Gyumri,Gyumri,Nominatim,,,,,,,['B4814']
976,"Stepan Zoryan street 21, Vanadzor","Stepan Zoryan Street 21, Vanadzor",OK,40.80964435,44.48083216,Stepan Zoryan Street,Armenia,Lori,Vanadzor,,Nominatim,21,,,,,,['B5152']
977,"Stepan Zoryan street 79/1, Vanadzor","Stepan Zoryan Street 79/1, Vanadzor",OK,40.80775,44.48660613,Stepan Zoryan Street,Armenia,Lori,Vanadzor,,Nominatim,79/1,,,,,,['B5153']
974,"Stepan Shahumyan Street 10, Jermuk","Stepan Shahumyan Street 10, Jermuk",OK,39.836679,45.66584,Stepan Shahumyan Street,Armenia,Vayots Dzor,Jermuk,Shahumyan,Yandex,10,,,,,,['B5147']
975,"Stepan Shahumyan Street 4, Jermuk","Stepan Shahumyan Street 4, Jermuk",OK,39.835024,45.665588,Stepan Shahumyan Street,Armenia,Vayots Dzor,Jermuk,Shahumyan,Yandex,4,,,,,,"['B5148', 'B5149', 'B5150', 'B5151']"
1337,"Улица Степана Шаумяна 188А, Гюмри","Stepan Shahumyan Street 188a, Gyumri",OK,40.783579,43.841936,Stepan Shahumyan Street,Armenia,Shirak,Gyumri,Shahumyan,Yandex,188A,,,,,,['B7337']
1338,"Улица Степана Шаумяна 24, Дилижан","Stepan Shahumyan Street 24, Dilijan",OK,40.75344,44.895112,Stepan Shahumyan Street,Armenia,Tavush,Dilijan,Shahumyan,Yandex,24,,,,,,['B7338']
1339,"Улица Степана Шаумяна 26, Дилижан","Stepan Shahumyan Street 26, Dilijan",OK,40.753597,44.89566,Stepan Shahumyan Street,Armenia,Tavush,Dilijan,Shahumyan,Yandex,26,,,,,,['B7339']
1691,"Շահումյան փողոց 188Ա, Գյումրի","Shahumyan Street 188a, Gyumri",OK,40.794606,43.842313,Stepan Shahumyan Street,Armenia,Shirak,Gyumri,Shahumyan,Yandex,,,,,1st Lane,,['B7861']
1695,"Շահումյանի փողոց 14, Արտաշատ","Shahumyan Street 14, Artashat",OK,39.960855,44.551515,Stepan Shahumyan Street,Armenia,Ararat,Artashat,Shahumyan,Yandex,14,,,,,,['B7869']
1772,"Ստեփան Շահումյանի փողոց 10, Դիլիջան","10 Stepan Shahumyan Street, Dilijan",OK,40.752224,44.890405,Stepan Shahumyan Street,Armenia,Tavush,Dilijan,Shahumyan,Yandex,10,,,,,,['B7997']
1773,"Ստեփան Շահումյանի փողոց 12, Դիլիջան","12 Stepan Shahumyan Street, Dilijan",OK,40.752517,44.891213,Stepan Shahumyan Street,Armenia,Tavush,Dilijan,Shahumyan,Yandex,12,,,,,,"['B7998', 'B7999', 'B8000']"
1774,"Ստեփան Շահումյանի փողոց 13, Դիլիջան","13 Stepan Shahumyan Street, Dilijan",OK,40.752873,44.891034,Stepan Shahumyan Street,Armenia,Tavush,Dilijan,Shahumyan,Yandex,13,,,,,,['B8001']
1775,"Ստեփան Շահումյանի փողոց 16, Դիլիջան","16 Stepan Shahumyan Street, Dilijan",OK,40.752948,44.893019,Stepan Shahumyan Street,Armenia,Tavush,Dilijan,Shahumyan,Yandex,16,,,,,,['B8002']
1776,"Ստեփան Շահումյանի փողոց 18, Ջերմուկ","18 Stepan Shahumyan Street, Jermuk",OK,39.83947,45.670071,Stepan Shahumyan Street,Armenia,Vayots Dzor,Jermuk,Shahumyan,Yandex,18,,,,,,['B8003']
1777,"Ստեփան Շահումյանի փողոց 18, Սևան","Stepan Shahumyan Street 18, Sevan",OK,40.546175,44.93859,Stepan Shahumyan Street,Armenia,Gegharkunik,Sevan,Shahumyan,Yandex,18,,,,,,['B8004']
1778,"Ստեփան Շահումյանի փողոց 188/15, Գյումրի","188/15 Stepan Shahumyan Street, Gyumri",OK,40.782958,43.841873,Stepan Shahumyan Street,Armenia,Shirak,Gyumri,Shahumyan,Yandex,188/15,,,,,,['B8005']
1779,"Ստեփան Շահումյանի փողոց 2, Ջերմուկ","2 Stepan Shahumyan Street, Jermuk",OK,39.834249,45.665498,Stepan Shahumyan Street,Armenia,Vayots Dzor,Jermuk,Shahumyan,Yandex,2,,,,,,"['B8006', 'B8007', 'B8008']"
1780,"Ստեփան Շահումյանի փողոց 2/1, Ջերմուկ","2/1 Stepan Shahumyan Street, Jermuk",OK,39.834249,45.665498,Stepan Shahumyan Street,Armenia,Vayots Dzor,Jermuk,Shahumyan,Yandex,2,,,,,,['B8009']
1781,"Ստեփան Շահումյանի փողոց 24, Դիլիջան","24 Stepan Shahumyan Street, Dilijan",OK,40.75344,44.895112,Stepan Shahumyan Street,Armenia,Tavush,Dilijan,Shahumyan,Yandex,24,,,,,,['B8010']
1782,"Ստեփան Շահումյանի փողոց, Գյումրի","Stepan Shahumyan Street, Gyumri",OK,40.784583,43.842331,Stepan Shahumyan Street,Armenia,Shirak,Gyumri,Shahumyan,Yandex,,,,,,,['B8011']
1783,"Ստեփան Շահումյանի փողոց, Դիլիջան","Stepan Shahumyan Street, Dilijan",OK,40.753474,44.894214,Stepan Shahumyan Street,Armenia,Tavush,Dilijan,Shahumyan,Yandex,,,,,,,"['B8012', 'B8013']"
1784,"Ստեփան Շահումյանի փողոց, Կապան","Stepan Shahumyan Street, Kapan",OK,39.20494,46.411522,Stepan Shahumyan Street,Armenia,Syunik,Kapan,Shahumyan,Yandex,,,,,,,['B8014']
1352,"Улица Шаумяна 188А, Гюмри","188a Shaumyan Street, Gyumri",OK,40.783579,43.841936,Stepan Shahumyan Street,Armenia,Shirak,Gyumri,Gyumri,Yandex,188A,,,,,,"['B7357', 'B7358']"
1770,"Սպանդարյան փողոց 1, Հրազդան","Spandaryan Street 1, Hrazdan",OK,40.4935324,44.75929453,Spandaryan Street,Armenia,Kotayk,Hrazdan,Spandaryan,Nominatim,1,Verin Aghbyurak,,,,,['B7995']
1771,"Սպանդարյան փողոց 5, Հրազդան","Spandaryan Street 5, Hrazdan",OK,40.49486025,44.7588024,Spandaryan Street,Armenia,Kotayk,Hrazdan,Spandaryan,Nominatim,5,Verin Aghbyurak,,,,,['B7996']
972,"Sose 2-nd Lane, Yerevan","Sose 2nd Lane, Yerevan",OK,40.19435,44.504228,Sose Street,Armenia,Yerevan,,,Yandex,,,,,2nd Lane,,['B5139']
973,"Sose street, Yerevan","Sose Street, Yerevan",OK,40.19602661,44.50480035,Sose Street,Armenia,Yerevan,,,Nominatim,,,,,,,"['B5140', 'B5141', 'B5142', 'B5143', 'B5144', 'B5145', 'B5146']"
127,"Arabkir 47th Street 2, Yerevan","Arabkir 47th Street 2, Yerevan",OK,40.2006552,44.51735384,Sos Sargsyan Street,Armenia,Yerevan,Arabkir,,Nominatim,2,,,,,,['B556']
124,"Arabkir 25-th Street, Yerevan","Arabkir 25th Street, Yerevan",OK,40.200281,44.509501,Slavik Chiloyan Street,Armenia,Yerevan,Arabkir,,Yandex,,,,,,,"['B551', 'B552', 'B553']"
971,"Sisakyan street, Yerevan","Sisakyan Street, Yerevan",OK,40.1923493,44.46995568,Sisakyan Street,Armenia,Yerevan,,,Nominatim,,,,,,,['B5138']
970,"Silikyan 1st street 33, Yerevan","Silikyan 1st Street 33, Yerevan",OK,40.2128068,44.44423695,Silikyan Street,Armenia,Yerevan,,,Nominatim,33,,Silikyan District,,,1st,['B5137']
969,"Shovroyan street, Yerevan","Shovroyan Street, Yerevan",OK,40.20667095,44.54740796,Shovroyan Street,Armenia,Yerevan,,,Nominatim,,,,,,,['B5136']
966,"Shopron street 4th lane, Yerevan","Shopron Street 4th Lane, Yerevan",OK,40.18814768,44.5590787,Shopron Street,Armenia,Yerevan,,,Nominatim,,,6,Nor Nork Block,4th Lane,,['B5131']
967,"Shopron street, Yerevan","Shopron Street, Yerevan",OK,40.18647136,44.55823313,Shopron Street,Armenia,Yerevan,,,Nominatim,,,6,Nor Nork Block,,,"['B5132', 'B5133']"
968,"Shoproni St, Yerevan","Shoproni Street, Yerevan",OK,40.186289,44.55881,Shopron Street,Armenia,Yerevan,,,Yandex,,,,,,,"['B5134', 'B5135']"
965,"Shirvanzade street, Yerevan","Shirvanzade Street, Yerevan",OK,40.21015581,44.52534231,Shirvanzade Street,Armenia,Yerevan,,,Nominatim,,,,,,,"['B5128', 'B5129', 'B5130']"
962,"Shirakatsi St 54, Gyumri","Shirakatsi Street 54, Gyumri",OK,40.7946991,43.83513053,Shirakatsi Street,Armenia,Shirak,Gyumri,Gyumri,Nominatim,54,,,,,,['B5125']
963,"Shirakatsi Street 201, Gyumri","Shirakatsi Street 201, Gyumri",OK,40.7874323,43.83701614,Shirakatsi Street,Armenia,Shirak,Gyumri,Gyumri,Nominatim,201,,,,,,['B5126']
964,"Shirakatsi street, Gyumri","Shirakatsi Street, Gyumri",OK,40.79152471,43.83571505,Shirakatsi Street,Armenia,Shirak,Gyumri,Gyumri,Nominatim,,,,,,,['B5127']
1354,"Улица Ширакаци 10, Гюмри","Shirakatsi Street 10, Gyumri",OK,40.8002881,43.8341201,Shirakatsi Street,Armenia,Shirak,Gyumri,Gyumri,Nominatim,10,,,,,,['B7360']
1355,"Улица Ширакаци 19/3, Гюмри","Shirakatsi Street 19/3, Gyumri",OK,40.8007181,43.83583065,Shirakatsi Street,Armenia,Shirak,Gyumri,Gyumri,Nominatim,19/3,,,,,,['B7361']
1356,"Улица Ширакаци 54/3, Гюмри","Shirakatsi Street 54/3, Gyumri",OK,40.79152471,43.83571505,Shirakatsi Street,Armenia,Shirak,Gyumri,Gyumri,Nominatim,,,,,,,['B7362']
1357,"Улица Ширакаци, Гюмри","Shirakatsi Street, Gyumri",OK,40.79152471,43.83571505,Shirakatsi Street,Armenia,Shirak,Gyumri,Gyumri,Nominatim,,,,,,,['B7363']
1358,"Улица Ширакацу, Gyumri","Shirakatsu Street, Gyumri",OK,40.79152471,43.83571505,Shirakatsi Street,Armenia,Shirak,Gyumri,Gyumri,Nominatim,,,,,,,['B7364']
1702,"Շիրակացի փողոց 1, Գյումրի","1 Shirakatsi Street, Gyumri",OK,40.78839295,43.83766701,Shirakatsi Street,Armenia,Shirak,Gyumri,Gyumri,Nominatim,195/1,,,,,,"['B7876', 'B7877']"
1703,"Շիրակացի փողոց 4/6, Գյումրի","4/6 Shirakatsi Street, Gyumri",OK,40.80145575,43.83317665,Shirakatsi Street,Armenia,Shirak,Gyumri,Gyumri,Nominatim,4/6,,,,,,['B7878']
1704,"Շիրակացի փողոց 54, Գյումրի","54 Shirakatsi Street, Gyumri",OK,40.7946991,43.83513053,Shirakatsi Street,Armenia,Shirak,Gyumri,Gyumri,Nominatim,54,,,,,,"['B7879', 'B7880']"
1705,"Շիրակացի փողոց, Գյումրի","Shirakatsi Street, Gyumri",OK,40.79152471,43.83571505,Shirakatsi Street,Armenia,Shirak,Gyumri,Gyumri,Nominatim,,,,,,,"['B7881', 'B7882', 'B7883', 'B7884', 'B7885', 'B7886', 'B7887', 'B7888']"
1706,"Շիրակացու փողոց 7, Գյումրի","7 Shirakatsi Street, Gyumri",OK,40.8018267,43.83483285,Shirakatsi Street,Armenia,Shirak,Gyumri,Gyumri,Nominatim,7,,,,,,['B7889']
1707,"Շիրակացու փողոց 7Բ, Գյումրի","7b Shirakatsi Street, Gyumri",OK,40.79152471,43.83571505,Shirakatsi Street,Armenia,Shirak,Gyumri,Gyumri,Nominatim,,,,,,,['B7890']
1708,"Շիրակացու փողոց, Gyumri","Shirakatsi Street, Gyumri",OK,40.79152471,43.83571505,Shirakatsi Street,Armenia,Shirak,Gyumri,Gyumri,Nominatim,,,,,,,['B7891']
1709,"Շիրակացու փողոց, Գյումրի","Shirakatsi Street, Gyumri",OK,40.79152471,43.83571505,Shirakatsi Street,Armenia,Shirak,Gyumri,Gyumri,Nominatim,,,,,,,['B7892']
1736,"Ջրվեժի 1-ին փողոց 40, Երևան","40, 1st Jrvezh Street, Yerevan",OK,40.147241,44.459824,Shirak Street,Armenia,Yerevan,,,Yandex,40,,,,,,['B7954']
1737,"Ջրվեժի 1-ին փողոց 68, Երևան","68, 1st Jrvezh Street, Yerevan",OK,40.149213,44.453114,Shirak Street,Armenia,Yerevan,,,Yandex,68,,,,,,['B7955']
1700,"Շինարարների փողոց, Կապան","Shinararneri Street, Kapan",OK,39.19978248,46.39161098,Shinararnery Street,Armenia,Syunik,Kapan,,Nominatim,,,,,,,['B7874']
952,"Shinararneri street 1, Vanadzor","Shinararneri Street 1, Vanadzor",OK,40.8002661,44.5163591,Shinararneri Street,Armenia,Lori,Vanadzor,,Nominatim,1,,Dimats,,,,['B4989']
953,"Shinararneri street 27, Yerevan","Shinararneri Street 27, Yerevan",OK,40.1974218,44.47336325,Shinararneri Street,Armenia,Yerevan,,,Nominatim,27,,,,,,['B4990']
954,"Shinararneri street 3, Yerevan","Shinararneri Street 3, Yerevan",OK,40.19232575,44.47306995,Shinararneri Street,Armenia,Yerevan,,,Nominatim,3,,,,,,['B4991']
955,"Shinararneri street 7, Vanadzor","Shinararneri Street 7, Vanadzor",OK,40.79931815,44.52075045,Shinararneri Street,Armenia,Lori,Vanadzor,,Nominatim,7,,Dimats,,,,['B4992']
956,"Shinararneri street, Vanadzor","Shinararneri Street, Vanadzor",OK,40.79846759,44.52215044,Shinararneri Street,Armenia,Lori,Vanadzor,,Nominatim,,,Dimats,,,,['B4993']
957,"Shinararneri street, Yerevan","Shinararneri Street, Yerevan",OK,40.1926871,44.47346288,Shinararneri Street,Armenia,Yerevan,,,Nominatim,,,,,,,"['B4994', 'B4995', 'B4996', 'B4997', 'B4998', 'B4999', 'B5000', 'B5001', 'B5002', 'B5003', 'B5004', 'B5005', 'B5006', 'B5007', 'B5008']"
1699,"Շերամի փողոց 4, Գյումրի","4 Sherami Street, Gyumri",OK,40.8110981,43.8560796,Sheram Street,Armenia,Shirak,Gyumri,Gyumri,Nominatim,4,,,,,,['B7873']
951,"Shengavit street, Yerevan","Shengavit Street, Yerevan",OK,40.16171766,44.48316458,Shengavit Street,Armenia,Yerevan,Shengavit,,Nominatim,,,Koghb,,,,['B4988']
949,"Sharuri street lane, Երևան","Sharuri Street Lane, Yerevan",OK,40.13895993,44.46229455,Sharuri Street Lane,Armenia,Yerevan,,,Nominatim,,,Charbakh,,,,['B4986']
948,"Shamakhyan Street, Dilijan station","Shamakhyan Street, Dilijan Station",OK,40.74822,44.845157,Shamakhyan Street,Armenia,Tavush,Dilijan,,Yandex,,,,,,,['B4985']
1696,"Շամախյան փողոց 2Բ, Դիլիջան","2b Shamakhyan Street, Dilijan",OK,40.74739875,44.83031106,Shamakhyan Street,Armenia,Tavush,Dilijan,,Nominatim,"2Բ, 3Բ",,,,,,['B7870']
1697,"Շամախյան փողոց, Դիլիջան","Shamakhyan Street, Dilijan",OK,40.74597382,44.8473141,Shamakhyan Street,Armenia,Tavush,Dilijan,,Nominatim,,,,,,,['B7871']
940,"Shahumyan St , Jermuk","Shahumyan Street , Jermuk",OK,39.84344573,45.67727649,Shahumyan Street,Armenia,Vayots Dzor,Jermuk,Shahumyan,Nominatim,,,,,,,['B4967']
941,"Shahumyan St, Jermuk","Shahumyan Street, Jermuk",OK,39.84344573,45.67727649,Shahumyan Street,Armenia,Vayots Dzor,Jermuk,Shahumyan,Nominatim,,,,,,,['B4968']
942,"Shahumyan street 188, Gyumri","Shahumyan Street 188, Gyumri",OK,40.7829644,43.84188904,Shahumyan Street,Armenia,Shirak,Gyumri,Shahumyan,Nominatim,188,,,,,,"['B4969', 'B4970']"
943,"Shahumyan street 20, Jermuk","Shahumyan Street 20, Jermuk",OK,39.84038175,45.67251806,Shahumyan Street,Armenia,Vayots Dzor,Jermuk,Shahumyan,Nominatim,20,,,,,,['B4971']
944,"Shahumyan street, Gyumri","Shahumyan Street, Gyumri",OK,40.77803783,43.84264993,Shahumyan Street,Armenia,Shirak,Gyumri,Shahumyan,Nominatim,,,,,,,"['B4972', 'B4973', 'B4974', 'B4975']"
945,"Shahumyan street, Jermuk","Shahumyan Street, Jermuk",OK,39.84344573,45.67727649,Shahumyan Street,Armenia,Vayots Dzor,Jermuk,Shahumyan,Nominatim,,,,,,,"['B4976', 'B4977', 'B4978', 'B4979', 'B4980', 'B4981', 'B4982']"
946,"Shahumyan street, Kapan","Shahumyan Street, Kapan",OK,39.20509626,46.41135994,Shahumyan Street,Armenia,Syunik,Kapan,Shahumyan,Nominatim,,,,,,,['B4983']
947,"Shahumyan street, Yeghegnadzor","Shahumyan Street, Yeghegnadzor",OK,39.76040185,45.32811295,Shahumyan Street,Armenia,Vayots Dzor,Yeghegnadzor,Shahumyan,Nominatim,,,,,,,['B4984']
1688,"Շահումյան փողոց 1, Ջերմուկ","Shahumyan Street 1, Jermuk",OK,39.8347517,45.66512125,Shahumyan Street,Armenia,Vayots Dzor,Jermuk,Shahumyan,Nominatim,1,,,,,,['B7853']
1689,"Շահումյան փողոց 10, Դիլիջան","Shahumyan Street 10, Dilijan",OK,40.75223115,44.89039625,Shahumyan Street,Armenia,Tavush,Dilijan,Shahumyan,Nominatim,10,,,,,,"['B7854', 'B7855', 'B7856', 'B7857', 'B7858']"
1690,"Շահումյան փողոց 13, Դիլիջան","Shahumyan Street 13, Dilijan",OK,40.75285685,44.89100565,Shahumyan Street,Armenia,Tavush,Dilijan,Shahumyan,Nominatim,13,,,,,,"['B7859', 'B7860']"
1692,"Շահումյան փողոց 2, Ջերմուկ","Shahumyan Street 2, Jermuk",OK,39.83501835,45.66561883,Shahumyan Street,Armenia,Vayots Dzor,Jermuk,Shahumyan,Nominatim,2,,,,,,['B7862']
1693,"Շահումյան փողոց 26, Դիլիջան","Shahumyan Street 26, Dilijan",OK,40.75359795,44.89564185,Shahumyan Street,Armenia,Tavush,Dilijan,Shahumyan,Nominatim,26,,,,,,"['B7863', 'B7864', 'B7865', 'B7866', 'B7867']"
1694,"Շահումյան փողոց, Դիլիջան","Shahumyan Street, Dilijan",OK,40.75269246,44.89109665,Shahumyan Street,Armenia,Tavush,Dilijan,Shahumyan,Nominatim,,,,,,,['B7868']
1353,"Улица Шаумяна, Гюмри","Shaumyana Street, Gyumri",OK,40.77803783,43.84264993,Shahumyan Street,Armenia,Shirak,Gyumri,Gyumri,Nominatim,,,,,,,['B7359']
939,"Shahsuvaryan street, Yerevan","Shahsuvaryan Street, Yerevan",OK,40.20763176,44.52294153,Shahsuvaryan Street,Armenia,Yerevan,,,Nominatim,,,,,,,"['B4962', 'B4963', 'B4964', 'B4965', 'B4966']"
1685,"Շահինյան փողոց 3, Գյումրի","3 Shahinyan Street, Gyumri",OK,40.7945965,43.8338986,Shahinyan Street,Armenia,Shirak,Gyumri,Gyumri,Nominatim,4/3,,,,,,"['B7849', 'B7850']"
1686,"Շահինյան փողոց 4Ա, Գյումրի","4a Shahinyan Street, Gyumri",OK,40.7949301,43.83303268,Shahinyan Street,Armenia,Shirak,Gyumri,Gyumri,Nominatim,4a,,,,,,['B7851']
1687,"Շահինյան փողոց, Գյումրի","Shahinyan Street, Gyumri",OK,40.79507786,43.8325373,Shahinyan Street,Armenia,Shirak,Gyumri,Gyumri,Nominatim,,,,,,,['B7852']
919,"Sayat Nova avenue 20, Yerevan","Sayat Nova Avenue 20, Yerevan",OK,40.18038715,44.5222194,Sayat-nova Avenue,Armenia,Yerevan,,,Nominatim,20,,,,,,['B4804']
937,"Sevani street, Abovyan","Sevani Street, Abovyan",OK,40.2857341,44.62776947,Sevan Street,Armenia,Kotayk,Abovyan,Abovyan,Nominatim,,,,,,,['B4960']
1763,"Սևանի փողոց 2/1, Աբովյան","2/1 Sevan Street, Abovyan",OK,40.2737359,44.62223908,Sevan Street,Armenia,Gegharkunik,Sevan,Abovyan,Nominatim,2/1,,,,,,['B7984']
1764,"Սևանի փողոց 4/1, Աբովյան","4/1 Sevan Street, Abovyan",OK,40.27601495,44.6229382,Sevan Street,Armenia,Gegharkunik,Sevan,Abovyan,Nominatim,4/1,,,,,,"['B7985', 'B7986']"
1765,"Սևանի փողոց, Աբովյան","Sevan Street, Abovyan",OK,40.2857341,44.62776947,Sevan Street,Armenia,Gegharkunik,Sevan,Abovyan,Nominatim,,,,,,,"['B7987', 'B7988', 'B7989', 'B7990']"
936,"Sevan street, Yerevan","Sevan Street, Yerevan",OK,40.15257721,44.50386065,Sevan Street,Armenia,Yerevan,Sevan,,Nominatim,,,,,,,"['B4955', 'B4956', 'B4957', 'B4958', 'B4959']"
938,"Sevani street, Yerevan","Sevani Street, Yerevan",OK,40.15257721,44.50386065,Sevan Street,Armenia,Yerevan,Sevan,,Nominatim,,,,,,,['B4961']
935,"Sero Khanzadyan Street 131/10, Yerevan","Sero Khanzadyan Street 131/10, Yerevan",OK,40.1931291,44.54123558,Sero Khanzadyan Street,Armenia,Yerevan,,,Nominatim,131/10,,Norq Marash,,,,['B4954']
1760,"Սեդրակ Ջալալյան փողոց 2, Քասախ","2 Sedrak Jalalyan Street, Kasakh",OK,40.23367305,44.45241545,Sedrak Jalalyan Street,Armenia,,Nairi,Kasakh,Nominatim,2,Kasakh,,,,,['B7981']
1761,"Սեդրակ Ջալալյանի փողոց 10, Քասախ","10 Sedrak Jalalyan Street, Kasakh",OK,40.2355783,44.45333655,Sedrak Jalalyan Street,Armenia,,Nairi,Kasakh,Nominatim,10,Kasakh,,,,,['B7982']
932,"Sebastia St, Երևան","Sebastia Street, Yerevan",OK,40.16246215,44.46646208,Sebastia Street,Armenia,Yerevan,,,Nominatim,,,,,,,"['B4943', 'B4944', 'B4945']"
933,"Sebastia Street, Yerevan","Sebastia Street, Yerevan",OK,40.16246215,44.46646208,Sebastia Street,Armenia,Yerevan,,,Nominatim,,,,,,,"['B4946', 'B4947', 'B4948', 'B4949', 'B4950', 'B4951', 'B4952']"
934,"Sebastya St, Yerevan","Sebastya Street, Yerevan",OK,40.176478,44.458396,Sebastia Street,Armenia,Yerevan,,,Yandex,,,,,,,['B4953']
930,"Sayat-Nova Street, Dilijan station","Sayat-nova Street, Dilijan Station",OK,40.15024,44.042988,Sayat-nova Street,Armenia,Tavush,Dilijan,Sayat-Nova,Yandex,,,,,,,['B4941']
1335,"Улица Саят-Нова 10, Ванадзор","10 Sayat-nova Street, Vanadzor",OK,40.796722,44.499826,Sayat-nova Street,Armenia,Lori,Vanadzor,Sayat-Nova,Yandex,10,,,,,,['B7335']
1336,"Улица Саят-Нова, Гюмри","Sayat-nova Street, Gyumri",OK,40.790318,43.846185,Sayat-nova Street,Armenia,Shirak,Gyumri,Sayat-Nova,Yandex,,,,,,,['B7336']
1747,"Սայաթ-Նովա փողոց 2/2, Գյումրի","Sayat-nova Street 2/2, Gyumri",OK,40.791868,43.845655,Sayat-nova Street,Armenia,Shirak,Gyumri,Sayat-Nova,Yandex,2/2,,,,,,['B7967']
1749,"Սայաթ-Նովա փողոց 9, Գյումրի","Sayat-nova Street 9, Gyumri",OK,40.789287,43.846329,Sayat-nova Street,Armenia,Shirak,Gyumri,Sayat-Nova,Yandex,9,,,,,,['B7969']
1750,"Սայաթ-Նովա փողոցի 5-րդ նրբանցք 2, Արմավիր","Sayat-nova Street, 5th Lane 2, Armavir",OK,40.152149,44.039673,Sayat-nova Street,Armenia,Armavir,Armavir,Sayat-Nova,Yandex,2,,,,5th Lane,,['B7970']
931,"Sayat-Novai St, Gyumri","Sayat-novai Street, Gyumri",OK,40.790318,43.846185,Sayat-nova Street,Armenia,Shirak,Gyumri,Gyumri,Yandex,,,,,,,['B4942']
920,"Sayat Nova avenue 33, Yerevan","Sayat Nova Avenue 33, Yerevan",OK,40.1808459,44.52283858,Sayat-nova Avenue,Armenia,Yerevan,,,Nominatim,33,,,,,,"['B4805', 'B4806']"
921,"Sayat Nova avenue 35, Yerevan","Sayat Nova Avenue 35, Yerevan",OK,40.1785597,44.5255872,Sayat-nova Avenue,Armenia,Yerevan,,,Nominatim,35,,,,,,['B4807']
922,"Sayat Nova avenue 4, Yerevan","Sayat Nova Avenue 4, Yerevan",OK,40.1840374,44.5176869,Sayat-nova Avenue,Armenia,Yerevan,,,Nominatim,4,,,,,,['B4808']
923,"Sayat Nova avenue 6, Yerevan","Sayat Nova Avenue 6, Yerevan",OK,40.1838314,44.51824735,Sayat-nova Avenue,Armenia,Yerevan,,,Nominatim,6,,,,,,"['B4809', 'B4810', 'B4811']"
924,"Sayat Nova avenue 8, Yerevan","Sayat Nova Avenue 8, Yerevan",OK,40.1830986,44.51913091,Sayat-nova Avenue,Armenia,Yerevan,,,Nominatim,8,,,,,,"['B4812', 'B4813']"
926,"Sayat Nova avenue, Yerevan","Sayat Nova Avenue, Yerevan",OK,40.18656788,44.51591792,Sayat-nova Avenue,Armenia,Yerevan,,,Nominatim,,,,,,,"['B4815', 'B4816', 'B4817', 'B4818', 'B4819', 'B4820', 'B4821', 'B4822', 'B4823', 'B4824', 'B4825', 'B4826', 'B4827', 'B4828', 'B4829', 'B4830', 'B4831', 'B4832', 'B4833', 'B4834', 'B4835', 'B4836', 'B4837', 'B4838', 'B4839', 'B4840', 'B4841', 'B4842', 'B4843', 'B4844', 'B4845', 'B4846', 'B4847', 'B4848', 'B4849', 'B4850', 'B4851', 'B4852', 'B4853', 'B4854', 'B4855', 'B4856', 'B4857', 'B4858', 'B4859', 'B4860', 'B4861', 'B4862', 'B4863', 'B4864', 'B4865', 'B4866', 'B4867', 'B4868', 'B4869', 'B4870', 'B4871', 'B4872', 'B4873', 'B4874', 'B4875', 'B4876', 'B4877', 'B4878', 'B4879', 'B4880', 'B4881', 'B4882', 'B4883', 'B4884', 'B4885', 'B4886', 'B4887', 'B4888', 'B4889', 'B4890', 'B4891', 'B4892', 'B4893', 'B4894', 'B4895', 'B4896', 'B4897', 'B4898', 'B4899', 'B4900', 'B4901', 'B4902', 'B4903', 'B4904', 'B4905', 'B4906', 'B4907', 'B4908', 'B4909', 'B4910', 'B4911', 'B4912', 'B4913', 'B4914', 'B4915', 'B4916', 'B4917', 'B4918', 'B4919', 'B4920', 'B4921', 'B4922', 'B4923', 'B4924', 'B4925', 'B4926', 'B4927', 'B4928', 'B4929']"
928,"Sayat-Nova Avenue, Երևան","Sayat-nova Avenue, Yerevan",OK,40.18656788,44.51591792,Sayat-nova Avenue,Armenia,Yerevan,,,Nominatim,,,,,,,"['B4931', 'B4932']"
1746,"Սայաթ-Նովա պողոտա, Երևան","Sayat-nova Avenue, Yerevan",OK,40.18656788,44.51591792,Sayat-nova Avenue,Armenia,Yerevan,,,Nominatim,,,,,,,"['B7965', 'B7966']"
1751,"Սայաթ-Նովայի պողոտա 21Ա, Երևան","21a Sayat-nova Avenue, Yerevan",OK,40.183577,44.5208941,Sayat-nova Avenue,Armenia,Yerevan,,,Nominatim,21a,,,,,,['B7971']
902,"Saralanj Avenue, Երևան","Saralanj Avenue, Yerevan",OK,40.194274,44.518466,Saralanj Avenue,Armenia,Yerevan,,,Yandex,,,,,,,['B4670']
1745,"Սախարովի հրապարակ 11, Երևան","Sakharov Square 11, Yerevan",OK,40.1797176,44.51711784,Sakharov Square,Armenia,Yerevan,,,Nominatim,,,,,,,['B7964']
1222,"Площадь Сахманадрутян 39, Раздан","Sahmanadrutyan Square 39, Hrazdan",OK,40.520637,44.750196,Sahmanadrutyun Square,Armenia,Kotayk,Hrazdan,,Yandex,39,,,,,,['B7211']
1230,"Проспект Республики 1/5, Абовян","Republic Avenue 1/5, Abovyan",OK,40.272961,44.624701,Republic Avenue,Armenia,Kotayk,Abovyan,Abovyan,Yandex,1/5,,,,,,['B7221']
1748,"Սայաթ-Նովա փողոց 20/25, Սևան","Sayat-nova Street 20/25, Sevan",OK,40.5447184,44.95635632,Sayat Nova Street,Armenia,Gegharkunik,Sevan,Sayat-Nova,Nominatim,20/25,,,,,,['B7968']
927,"Sayat Nova street 13/14, Sevan town","Sayat Nova Street 13/14, Sevan Town",OK,40.54767515,44.9576241,Sayat Nova Street,Armenia,Gegharkunik,Sevan,,Nominatim,13/14,,,,,,['B4930']
916,"Savoyan street, Gyumri","Savoyan Street, Gyumri",OK,40.81650413,43.84664783,Savoyan Street,Armenia,Shirak,Gyumri,Gyumri,Nominatim,,,,,,,['B4800']
915,"Sasuntsi Davit Street, Yerevan","Sasuntsi Davit Street, Yerevan",OK,40.15502435,44.5112685,Sasuntsi Davit Street,Armenia,Yerevan,,,Nominatim,,,Nor Butania,,,,['B4799']
912,"SasnaTsrer street 2, Yerevan","Sasnatsrer Street 2, Yerevan",OK,40.2141408,44.49039385,Sasnatsrer Street,Armenia,Yerevan,,,Nominatim,2,,,,,,"['B4773', 'B4774', 'B4775']"
913,"SasnaTsrer street 3, Yerevan","Sasnatsrer Street 3, Yerevan",OK,40.21198782,44.49116837,Sasnatsrer Street,Armenia,Yerevan,,,Nominatim,,,,,,,['B4776']
914,"SasnaTsrer street, Yerevan","Sasnatsrer Street, Yerevan",OK,40.21198782,44.49116837,Sasnatsrer Street,Armenia,Yerevan,,,Nominatim,,,,,,,"['B4777', 'B4778', 'B4779', 'B4780', 'B4781', 'B4782', 'B4783', 'B4784', 'B4785', 'B4786', 'B4787', 'B4788', 'B4789', 'B4790', 'B4791', 'B4792', 'B4793', 'B4794', 'B4795', 'B4796', 'B4797', 'B4798']"
654,"Martiros Saryan Street 20, Yerevan","Martiros Saryan Street 20, Yerevan",OK,40.185166,44.506375,Saryan Street,Armenia,Yerevan,,,Yandex,20,,,,,,"['B3425', 'B3426', 'B3427']"
655,"Martiros Saryan Street 26/4, Yerevan","Martiros Saryan Street 26/4, Yerevan",OK,40.182651,44.504506,Saryan Street,Armenia,Yerevan,,,Yandex,26/4,,,,,,['B3428']
656,"Martiros Saryan Street 29, Yerevan","Martiros Saryan Street 29, Yerevan",OK,40.181818,44.505171,Saryan Street,Armenia,Yerevan,,,Yandex,29,,,,,,['B3429']
906,"Saryan Street 1, Yerevan","Saryan Street 1, Yerevan",OK,40.1871054,44.5096233,Saryan Street,Armenia,Yerevan,,,Nominatim,1,,,,,,['B4679']
907,"Saryan Street 18, Yerevan","Saryan Street 18, Yerevan",OK,40.18534925,44.50662388,Saryan Street,Armenia,Yerevan,,,Nominatim,18,,,,,,['B4680']
908,"Saryan Street 2, Yerevan","Saryan Street 2, Yerevan",OK,40.187478,44.509619,Saryan Street,Armenia,Yerevan,,,Nominatim,2,,,,,,['B4681']
909,"Saryan Street 26/3, Yerevan","Saryan Street 26/3, Yerevan",OK,40.18319945,44.50412875,Saryan Street,Armenia,Yerevan,,,Nominatim,26/3,,,,,,['B4682']
910,"Saryan Street 30, Yerevan","Saryan Street 30, Yerevan",OK,40.1822237,44.5045175,Saryan Street,Armenia,Yerevan,,,Nominatim,30,,,,,,['B4683']
911,"Saryan Street, Yerevan","Saryan Street, Yerevan",OK,40.18520199,44.50670554,Saryan Street,Armenia,Yerevan,,,Nominatim,,,,,,,"['B4684', 'B4685', 'B4686', 'B4687', 'B4688', 'B4689', 'B4690', 'B4691', 'B4692', 'B4693', 'B4694', 'B4695', 'B4696', 'B4697', 'B4698', 'B4699', 'B4700', 'B4701', 'B4702', 'B4703', 'B4704', 'B4705', 'B4706', 'B4707', 'B4708', 'B4709', 'B4710', 'B4711', 'B4712', 'B4713', 'B4714', 'B4715', 'B4716', 'B4717', 'B4718', 'B4719', 'B4720', 'B4721', 'B4722', 'B4723', 'B4724', 'B4725', 'B4726', 'B4727', 'B4728', 'B4729', 'B4730', 'B4731', 'B4732', 'B4733', 'B4734', 'B4735', 'B4736', 'B4737', 'B4738', 'B4739', 'B4740', 'B4741', 'B4742', 'B4743', 'B4744', 'B4745', 'B4746', 'B4747', 'B4748', 'B4749', 'B4750', 'B4751', 'B4752', 'B4753', 'B4754', 'B4755', 'B4756', 'B4757', 'B4758', 'B4759', 'B4760', 'B4761', 'B4762', 'B4763', 'B4764', 'B4765', 'B4766', 'B4767', 'B4768', 'B4769', 'B4770', 'B4771', 'B4772']"
1302,"Улица Мартироса Сарьяна 10, Ереван","Martirosa Saryana Street, Yerevan",OK,40.186641,44.508154,Saryan Street,Armenia,Yerevan,,,Yandex,10,,,,,,['B7297']
1594,"Մարտիրոս Սարյանի փողոց 33, Երևան","33 Martiros Saryan Street, Yerevan",OK,40.180894,44.505369,Saryan Street,Armenia,Yerevan,,,Yandex,33,,,,,,['B7688']
1595,"Մարտիրոս Սարյանի փողոց 9, Երևան","9 Martiros Saryan Street, Yerevan",OK,40.186496,44.508773,Saryan Street,Armenia,Yerevan,,,Yandex,9,,,,,,['B7689']
1759,"Սարյանի փողոց, Yerevan","Saryan Street, Yerevan",OK,40.18520199,44.50670554,Saryan Street,Armenia,Yerevan,,,Nominatim,,,,,,,"['B7979', 'B7980']"
905,"Sarmen street, Yerevan","Sarmen Street, Yerevan",OK,40.19255114,44.51084627,Sarmen Street,Armenia,Yerevan,,,Nominatim,,,,,,,"['B4673', 'B4674', 'B4675', 'B4676', 'B4677', 'B4678']"
904,"Sari Tag 21 street 17, Yerevan","Sari Tag 21 Street 17, Yerevan",OK,40.1621772,44.53256456,Sari Tagh Street,Armenia,Yerevan,,,Nominatim,17,,Sari Tagh,,,21st,['B4672']
1334,"Улица Саркиса Севанеци 19, Севан","19 Sarkis Sevanetsi Street, Sevan",OK,40.54358235,44.9628105,Sargis Sevanetsi Street,Armenia,Gegharkunik,Sevan,,Nominatim,19,,,,,,['B7334']
1757,"Սարգիս Սևանեցու փողոց 7, Սևան","7 Sargis Sevanetsi Street, Sevan",OK,40.546949,44.962108,Sargis Sevanetsi Street,Armenia,Gegharkunik,Sevan,,Yandex,7,,,,,,['B7977']
1758,"Սարգիս Սևանեցու փողոց, Սևան","Sargis Sevanetsi Street, Sevan",OK,40.546662,44.959934,Sargis Sevanetsi Street,Armenia,Gegharkunik,Sevan,,Yandex,,,,,,,['B7978']
1756,"Սարալանջի փողոց, Երևան","Saralanj Street, Yerevan",OK,40.19376206,44.51874578,Saralanji Street,Armenia,Yerevan,,,Nominatim,,,,,,,['B7976']
1755,"Սարալանջի փողոց 8Ա, Աբովյան","8a Saralanj Street, Abovyan",OK,40.2650677,44.63403704,Saralanj Street,Armenia,Kotayk,Abovyan,Saralanj,Nominatim,8А,,Sari Tagh,,,,['B7975']
901,"Saralangi street, Abovyan","Saralangi Street, Abovyan",OK,40.266541,44.637071,Saralanj Street,Armenia,Kotayk,Abovyan,Abovyan,Yandex,,,,,,,['B4669']
1754,"Սարալանջ փողոց 10, Երևան","10 Saralanj Street, Yerevan",OK,40.15979155,44.44196142,Saralanj Street,Armenia,Yerevan,,,Nominatim,,,,,,,['B7974']
1211,"Квартал Санаин Сараарт 3/11, Алаверди","Quarter Sanain Saraart 3/11, Alaverdi",OK,41.089797,44.657813,Quarter Sanain Saraart,Armenia,Lori,Alaverdi,Alaverdi,Yandex,3/11,,Sanahin Sarahart District,,,,['B7195']
899,"Sankt Peterburg street, Vanadzor","Sankt Peterburg Street, Vanadzor",OK,40.78943226,44.52826285,Sankt Peterburg Street,Armenia,Lori,Vanadzor,,Nominatim,,,Bazum,,,,['B4667']
895,"Safaryan St, Yerevan","Safaryan Street, Yerevan",OK,40.19746841,44.56513966,Samvel Safaryan Street,Armenia,Yerevan,,,Nominatim,,,1,Nor Nork Block,,,['B4661']
898,"Samvel Safaryan street, Yerevan","Samvel Safaryan Street, Yerevan",OK,40.19746841,44.56513966,Samvel Safaryan Street,Armenia,Yerevan,,,Nominatim,,,1,Nor Nork Block,,,"['B4664', 'B4665', 'B4666']"
897,"Sakharov street, Yerevan","Sakharov Street, Yerevan",OK,40.17978505,44.51755708,Sakharov Street,Armenia,Yerevan,,,Nominatim,,,,,,,['B4663']
1199,"Квартал Муш 2 10-2А, Гюмри","Quarter Mush 2 10-2a, Gyumri",OK,40.8145661,43.81554185,Quarter Mush 2,Armenia,Shirak,Gyumri,Gyumri,Nominatim,10-2a,,Mush 2 District,,,,['B7182']
896,"Sahmanapahner Street 45, Armavir","Sahmanapahner Street 45, Armavir",OK,40.1452994,44.04010241,Sahmanapahner Street,Armenia,Armavir,Armavir,Armavir,Nominatim,45,,,,,,['B4662']
1200,"Квартал Муш 2 10-2Е, Гюмри","Quarter Mush 2 10-2e, Gyumri",OK,40.8145661,43.81554185,Quarter Mush 2,Armenia,Shirak,Gyumri,Gyumri,Nominatim,10-2e,,Mush 2 District,,,,['B7183']
1333,"Улица С. Григоряна 10А, Гюмри","S. Grigoryan Street 10a, Gyumri",OK,40.7869946,43.86261347,S. Grigoryan Street,Armenia,Shirak,Gyumri,Gyumri,Nominatim,10a,,,,,,['B7333']
1753,"Սաշա Գրիգորյանի փողոց, Գյումրի","Sasha Grigoryan Street, Gyumri",OK,40.78655044,43.86493024,S. Grigoryan Street,Armenia,Shirak,Gyumri,Gyumri,Nominatim,,,,,,,['B7973']
894,"Rustaveli Street, Gyumri","Rustaveli Street, Gyumri",OK,40.78907046,43.83911705,Rustaveli Street,Armenia,Shirak,Gyumri,Gyumri,Nominatim,,,,,,,"['B4659', 'B4660']"
1332,"улица Руставели 25, Гюмри","Rustaveli Street 25, Gyumri",OK,40.78909495,43.84036459,Rustaveli Street,Armenia,Shirak,Gyumri,Gyumri,Nominatim,25,,,,,,['B7332']
892,"Russian street 14, Abovyan","Russian Street 14, Abovyan",OK,40.2734675,44.63079522,Russian Street,Armenia,Kotayk,Abovyan,Abovyan,Nominatim,14,,,,,,"['B4656', 'B4657']"
893,"Russian street, Abovyan","Russian Street, Abovyan",OK,40.27426173,44.63170389,Russian Street,Armenia,Kotayk,Abovyan,Abovyan,Nominatim,,,,,,,['B4658']
1743,"Ռուսաստանի փողոց 10, Աբովյան","10 Russia Street, Abovyan",OK,40.27404585,44.62989886,Russian Street,Armenia,Kotayk,Abovyan,Abovyan,Nominatim,10,,,,,,['B7962']
1744,"Ռուսաստանի փողոց, Աբովյան","Russia Street, Abovyan",OK,40.27426173,44.63170389,Russian Street,Armenia,Kotayk,Abovyan,Abovyan,Nominatim,,,,,,,['B7963']
1201,"Квартал Муш 2 16, Гюмри","Quarter Mush 2 16, Gyumri",OK,40.8145661,43.81554185,Quarter Mush 2,Armenia,Shirak,Gyumri,Gyumri,Nominatim,16,,Mush 2 District,,,,['B7184']
890,"Rubiniants street lane, Yerevan","Rubiniants Street Lane, Yerevan",OK,40.21004184,44.55181071,Rubiniants Street Lane,Armenia,Yerevan,,,Nominatim,,,,,,,['B4642']
886,"Rubiniants street 1, Yerevan","Rubiniants Street 1, Yerevan",OK,40.2012158,44.54289178,Rubiniants Street,Armenia,Yerevan,,,Nominatim,11/1,,,,,,"['B4636', 'B4637']"
887,"Rubiniants street 17, Yerevan","Rubiniants Street 17, Yerevan",OK,40.2030247,44.54664179,Rubiniants Street,Armenia,Yerevan,,,Nominatim,17,,,,,,"['B4638', 'B4639']"
888,"Rubiniants street 17/2, Yerevan","Rubiniants Street 17/2, Yerevan",OK,40.2034267,44.54691578,Rubiniants Street,Armenia,Yerevan,,,Nominatim,17/2,,,,,,['B4640']
889,"Rubiniants street 20, Yerevan","Rubiniants Street 20, Yerevan",OK,40.20273465,44.54750105,Rubiniants Street,Armenia,Yerevan,,,Nominatim,20,,,,,,['B4641']
891,"Rubiniants street, Yerevan","Rubiniants Street, Yerevan",OK,40.2046911,44.55531607,Rubiniants Street,Armenia,Yerevan,,,Nominatim,,,,,,,"['B4643', 'B4644', 'B4645', 'B4646', 'B4647', 'B4648', 'B4649', 'B4650', 'B4651', 'B4652', 'B4653', 'B4654', 'B4655']"
1741,"Ռուբինյանց փողոց 15/5, Երևան","Rubinyants Street 15/5, Yerevan",OK,40.2024141,44.545615,Rubiniants Street,Armenia,Yerevan,,,Nominatim,15/5,,,,,,['B7960']
1742,"Ռուբինյանց փողոց 41, Երևան","41 Rubinyants Street, Yerevan",OK,40.2026274,44.54612241,Rubiniants Street,Armenia,Yerevan,,,Nominatim,41,,,,,,['B7961']
883,"Rostovyan street 15, Yerevan","Rostovyan Street 15, Yerevan",OK,40.150912,44.51701785,Rostovyan Street,Armenia,Yerevan,,,Nominatim,15,,Nor Butania,,,,['B4633']
884,"Rostovyan street 34, Yerevan","Rostovyan Street 34, Yerevan",OK,40.1501196,44.51663077,Rostovyan Street,Armenia,Yerevan,,,Nominatim,34,,Nor Aresh,,,,['B4634']
885,"Rostovyan street, Yerevan","Rostovyan Street, Yerevan",OK,40.1505651,44.51514917,Rostovyan Street,Armenia,Yerevan,,,Nominatim,,,Nor Aresh,,,,['B4635']
881,"Rostom street 29, Yerevan","Rostom Street 29, Yerevan",OK,40.16742065,44.51826306,Rostom Street,Armenia,Yerevan,,,Nominatim,29,,,,,,"['B4626', 'B4627']"
882,"Rostom street, Yerevan","Rostom Street, Yerevan",OK,40.16540903,44.5187878,Rostom Street,Armenia,Yerevan,,,Nominatim,,,,,,,"['B4628', 'B4629', 'B4630', 'B4631', 'B4632']"
880,"Rizhkov Street, Gyumri","Rizhkov Street, Gyumri",OK,40.78658614,43.84372252,Rizhkov Street,Armenia,Shirak,Gyumri,Gyumri,Nominatim,,,,,,,"['B4624', 'B4625']"
879,"Rijkov St, Gyumri","Rijkov Street, Gyumri",OK,40.785273,43.841774,Rijkov Street,Armenia,Shirak,Gyumri,Gyumri,Yandex,,,,,,,"['B4622', 'B4623']"
877,"Riga street, Yerevan","Riga Street, Yerevan",OK,40.20104491,44.50909565,Riga Street,Armenia,Yerevan,,,Nominatim,,,,,,,"['B4617', 'B4618', 'B4621']"
878,"Riga Street, Yerevan","Riga Street, Yerevan",OK,40.20104491,44.50909565,Riga Street,Armenia,Yerevan,,,Nominatim,,,,,,,"['B4619', 'B4620']"
1202,"Квартал Муш 2 2-6, Гюмри","Quarter Mush 2 2-6, Gyumri",OK,40.8145661,43.81554185,Quarter Mush 2,Armenia,Shirak,Gyumri,Gyumri,Nominatim,2-6,,Mush 2 District,,,,['B7185']
1740,"Ռեպինի փողոց, Գյումրի","Repini Street, Gyumri",OK,40.80585929,43.83840251,Repin Street,Armenia,Shirak,Gyumri,Gyumri,Nominatim,,,,,,,"['B7958', 'B7959']"
875,"Raynis street 90, Yerevan","Raynis Street 90, Yerevan",OK,40.20049835,44.54825228,Raynis Street,Armenia,Yerevan,,,Nominatim,90,,,,,,['B4613']
876,"Raynis street, Yerevan","Raynis Street, Yerevan",OK,40.19997711,44.54624159,Raynis Street,Armenia,Yerevan,,,Nominatim,,,,,,,"['B4614', 'B4615', 'B4616']"
1331,"Улица Рафаэла Патканяна 19, Вагаршапат","Rafael Patkanyan Street 19, Vagharshapat",OK,40.165541,44.286422,Raphael Patkanyan Street,Armenia,,,,Yandex,19,,,,,,['B7331']
874,"Raphael Lemkin street 14, Yerevan","Raphael Lemkin Street 14, Yerevan",OK,40.18836785,44.51043481,Raphael Lemkin Street,Armenia,Yerevan,,,Nominatim,14,,,,,,['B4612']
1832,"Րաֆֆու փողոց 3, Ստեփանավան","3 Raffi Street, Stepanavan",OK,41.00566396,44.39301153,Raffi Street,Armenia,Lori,Stepanavan,Stepanavan,Nominatim,,,,,,,['B8074']
871,"Raffi street 21, Yerevan","Raffi Street 21, Yerevan",OK,40.17368165,44.4515028,Raffi Street,Armenia,Yerevan,,,Nominatim,21,,,,,,['B4603']
872,"Raffi street 49, Yerevan","Raffi Street 49, Yerevan",OK,40.1723491,44.44300888,Raffi Street,Armenia,Yerevan,,,Nominatim,49,,,,,,['B4604']
873,"Raffi street, Yerevan","Raffi Street, Yerevan",OK,40.17441139,44.45513649,Raffi Street,Armenia,Yerevan,,,Nominatim,,,,,,,"['B4605', 'B4606', 'B4607', 'B4608', 'B4609', 'B4610', 'B4611']"
1831,"Րաֆֆու փողոց 1, Հրազդան","1 Raffi Street, Hrazdan",OK,40.4939881,44.75493115,Raffi Street,Armenia,Kotayk,Hrazdan,,Nominatim,1,Verin Aghbyurak,,,,,['B8073']
1739,"Ռաֆայել Իսրաելյան փողոց 37, Երևան","37 Rafael Israelyan Street, Yerevan",OK,40.177994,44.50147,Rafael Israyelyan Street,Armenia,Yerevan,,,Yandex,37,,,,,,['B7957']
1203,"Квартал Муш 2 4/24, Гюмри","Quarter Mush 2 4/24, Gyumri",OK,40.8145661,43.81554185,Quarter Mush 2,Armenia,Shirak,Gyumri,Gyumri,Nominatim,4/24,,Mush 2 District,,,,['B7186']
1204,"Квартал Муш 2 4/28, Гюмри","Quarter Mush 2 4/28, Gyumri",OK,40.8145661,43.81554185,Quarter Mush 2,Armenia,Shirak,Gyumri,Gyumri,Nominatim,4/28,,Mush 2 District,,,,"['B7187', 'B7188']"
1205,"Квартал Муш 2 4/29, Гюмри","Quarter Mush 2 4/29, Gyumri",OK,40.8145661,43.81554185,Quarter Mush 2,Armenia,Shirak,Gyumri,Gyumri,Nominatim,4/29,,Mush 2 District,,,,['B7189']
1206,"Квартал Муш 2 4/32, Гюмри","Quarter Mush 2 4/32, Gyumri",OK,40.8145661,43.81554185,Quarter Mush 2,Armenia,Shirak,Gyumri,Gyumri,Nominatim,4/32,,Mush 2 District,,,,['B7190']
817,"Northern Avenue 10, Yerevan","Northern Avenue 10, Yerevan",OK,40.1818568,44.5144064,Northern Avenue,Armenia,Yerevan,,,Nominatim,10,,,,,,['B4148']
818,"Northern Avenue 10/1, Yerevan","Northern Avenue 10/1, Yerevan",OK,40.18084195,44.51479286,Northern Avenue,Armenia,Yerevan,,,Nominatim,10/1,,,,,,['B4149']
819,"Northern Avenue 3, Yerevan","Northern Avenue 3, Yerevan",OK,40.18309375,44.51525528,Northern Avenue,Armenia,Yerevan,,,Nominatim,3,,,,,,"['B4150', 'B4151', 'B4152']"
820,"Northern Avenue 6, Yerevan","Northern Avenue 6, Yerevan",OK,40.18352015,44.51445297,Northern Avenue,Armenia,Yerevan,,,Nominatim,6,,,,,,"['B4153', 'B4154']"
821,"Northern Avenue 8, Yerevan","Northern Avenue 8, Yerevan",OK,40.18251715,44.51443981,Northern Avenue,Armenia,Yerevan,,,Nominatim,8,,,,,,"['B4155', 'B4156', 'B4157', 'B4158']"
